"YEAR","COUNTRY","LOCATION","LAT","LON","REMARKS","SOURCE","CODE","SEVERITY"
1999,"France","SE France",43,5,"Bleaching of Cladocora caespitosa and Oculina patagonensis.
Above all, death of gorgonians (up to >75%), sponges, also bivalves, ascidians, bryozoansAttributed to high temperature, and perhaps pathogen.  See in Perez et al., 2000, Mortalité massive d'invertébrés marins: un évenement sans précédent en Méditérranée nord-occidentale, CR Acad Sci Paris, Life Sci, 323, 853-865.","Martin Pêcheux (martin-pecheux@wanadoo.fr) personal communication to ReefBase","FRA","UNKNOWN"
1998,"Mexico (Pacific)","Tijera and Mazunte, Oaxaca",16,-95,"In spring and summer 1998, when the anti-El Niño event was present in the eastern Pacific, corals remained in good condition in Oaxaca, although surface temperature was noticeably lower than normal, especially in May. However, after high wind intensities and coastal upwelling caused further sea surface temperature reductions during autumn 1998, we observed widespread bleaching in the reef tract, but mortality only occurred in the two most northern reefs of the area: Tijera and Mazunte. Pocillopora was the most affected genus, although Pavona and Porites were impacted, too. In normal years, northern winds cross the Gulf of México and increase their speed when passing through the Tehuantepec Isthmus. They displace surface water and produce strong upwellings that affect an area of about 200X500 km in the Gulf of Tehuantepec.","Reyes-Bonilla, et al 2002.  Effects of the El Niño-Southern Oscillation and the anti-El Niño event (1997-1999) on coral reefs of the western coast of México.","MEX","HIGH"
1998,"St. Croix","Buck Island, US Virgin Islands",17.79,-64.63,"bleaching","GCRMN 2000. Chapter 14","VIR","MEDIUM"
1998,"St. Johnson & Thomas","Caret Bay Reef, St Thomas, US Virgin Islands",18.35,-65,"Moderate bleaching;m41% bleaching","GCRMN 2000. Chapter 14","VIR","MEDIUM"
1998,"St. Johnson & Thomas","Lameshur Reef, St Johns, US Virgin Islands",18.3,-64.7,"Moderate bleaching; 47% bleaching","GCRMN 2000. Chapter 14","VIR","MEDIUM"
1998,"St. Johnson & Thomas","Newfound Reef, St Johns, US Virgin Islands",18.31,-64.77,"Moderate bleaching; 43% bleaching","GCRMN 2000. Chapter 14","VIR","MEDIUM"
1998,"St. Johnson & Thomas","Saba Island, ST Thomas, US Virgin Islands",18.35,-65,"Moderate bleaching","GCRMN 2000. Chapter 14","VIR","MEDIUM"
1998,"United Kingdom","Blenheim Bank",-5.25,72.47,">70%","Sheppard,CRC","GBR","HIGH"
1998,"United Kingdom","Chagos",-6.1,71.7333333333333," A 1996 survey showed that only 12% of the substrate on the seaward reefs is live coral today. Upto 40% was unidentifiable dead substrate. In 1996, an average of about 75% of the substrate was living corals and soft corals.","ReefBase and GCRMN 2002","GBR","HIGH"
1998,"United Kingdom","Egmont",-6.6635,71.3504,">70%","Sheppard,CRC","GBR","HIGH"
1998,"United Kingdom","Great Chagos Bank",-6.2348,71.9986,">70%","Sheppard,CRC","GBR","HIGH"
1998,"United Kingdom","Peros Banhos Atoll",-5.35,71.7505,">70%","Sheppard,CRC","GBR","HIGH"
1998,"United Kingdom","Salomon Atoll",-5.3484,72.2442,">70%","Sheppard,CRC","GBR","HIGH"
1998,"United Kingdom","Soufriere, Saint Lucia",13.8716,-61.0808,"100%","Wilkinson, Clive","GBR","HIGH"
1998,"Kenya","Diani",-4.25,39.6166666666667," Extent Unspecified","ReefBase","KEN","UNKNOWN"
1998,"Kenya","Kenya",-3.36666666666667,40.4833333333333," Bleaching and mortality were highest in shallow habitats and pools, where water stagnation occurs, or where corals are regularly exposed to outflow of shallow (warm) lagoon waters and/or to mangrove and sediment influence.","ReefBase","KEN","HIGH"
1998,"Kenya","Lamu",-2.2456,41.0642,NA,"Wilkinson, Clive","KEN","LOW"
1998,"Kenya","Lamu",-2.28333333333333,40.9,"Moderate bleaching; Bleaching was most extreme in shallow water, but was also 50% or more at 20 m. Coral mortality ranges between 50 to 90%, with reefs now having 1-10% coral cover, with 10-50% of the remaining live corals still bleached in mid-October.","ReefBase","KEN","MEDIUM"
1998,"Kenya","Lamu-Kiunga area",-1.7226,41.5222,NA,"Coral Listserver","KEN","MEDIUM"
1998,"Kenya","Malindi",-3.2218,40.1403,"50-90% (along entire Kenya coast) to 20m, with highest mortalities in <2-3m","CORDIO","KEN","HIGH"
1998,"Kenya","Malindi",-3.23333333333333,40.6666666666667," Coral mortality resulting to a decline in coral coner falling from levels of 30% (southern, deep reefs) and approximately 10% (northern reefs) to about 5% at all sites.","ReefBase","KEN","LOW"
1998,"Kenya","Mombasa",-4,39.75,"50-100%","Wilkinson, Clive","KEN","HIGH"
1998,"Kenya","Takaungu",-3.66666666666667,39.8833333333333,"Low level bleaching. ","ReefBase","KEN","UNKNOWN"
1998,"Kenya","Watamu",-3.31666666666667,40.1166666666667," Coral mortality resulted to a decline in coral cover falling from levels of 30% (southern, deep reefs) and approximately 10% (northern reefs) to about 5% at all sites.","ReefBase","KEN","LOW"
1999,"Mozambique","Baixo de St. Antonio, Angoche",-16.02,40.13,"Some evidence (<2%) of current bleaching.
Fringing reef subject to considerable surge and surf at 3-7 m depth with
marked spur and groove formations manifesting the original dune rock
structure. Evidence of bleaching the current year.","Schleyer et al, 1999.  A preliminary assessment of coral bleaching in Mozambique. South African Association for Marine Biological Research Unpublished Report no. 168 PO Box 10712, Marine Parade 4056, Durban, South Africa","MOZ","LOW"
1998,"Mozambique","Baixo St Antonio",-16.2032,40.137,NA,"CORDIO","MOZ","HIGH"
1998,"Mozambique","Barreira Vermelha",-26.1,32.8833333333333," ","ReefBase","MOZ","HIGH"
1998,"Mozambique","Bazaruto Island",-21.6666666666667,35.5,"Moderate bleaching","ReefBase","MOZ","MEDIUM"
1998,"Mozambique","Cabo das Correntes (Paindane)",-23.7787,35.5125,NA,"CORDIO","MOZ","NONE"
1998,"Mozambique","Coral Garden",-21.9045,35.5151,NA,"CORDIO","MOZ","NONE"
1998,"Mozambique","Coral Garden",-23.7769,35.489,NA,"CORDIO","MOZ","MEDIUM"
1999,"Mozambique","Coral Garden (Ponta da Barra), Inhambane",-23.78,35.516,"Current bleaching <1%.
A wave cut beach rock platform
exposed to surge and surf at 1-5m
Dominated by tabular staghorn and
soft corals.","Schleyer et al, 1999.  A preliminary assessment of coral bleaching in Mozambique. South African Association for Marine Biological Research Unpublished Report no. 168 PO Box 10712, Marine Parade 4056, Durban, South Africa","MOZ","LOW"
1998,"Mozambique","Fernao Veloso Bay",-12.9563,40.5845,NA,"CORDIO","MOZ","HIGH"
1999,"Mozambique","Inhaca Island",-26.0036,32.9164,"bleaching observed early 1999","GCRMN 2000. Chapter 4","MOZ","LOW"
1998,"Mozambique","Inhaca Island",-26.05,32.95," Bleaching has caused near total mortality; quantitative assessment was difficult due to turbidity. Fish were sparse.","ReefBase","MOZ","MEDIUM"
1998,"Mozambique","Lighthouse Reef",-21.4923,35.5102,NA,"CORDIO","MOZ","MEDIUM"
1999,"Mozambique","Lighthouse Reef, Inner Two-Mile Reef",-21.516,35.483,"Current bleaching ~1%.
Partially sheltered mixed coral community, 1-3.5 m deep, on the landward side of a fringing rock reef north of Bazaruto lighthouse. Coral
cover and community structure variable according to degree exposure and sedimentation on the reef. This ranged from monospecific outcrops of large staghorn corals to sparse cover of sediment tolerant
faviids and soft corals. Little present or past bleaching. Fish community
commensurately rich and abundant.","Schleyer et al, 1999.  A preliminary assessment of coral bleaching in Mozambique. South African Association for Marine Biological Research Unpublished Report no. 168 PO Box 10712, Marine Parade 4056, Durban, South Africa","MOZ","LOW"
1998,"Mozambique","Mafamede Island",-16.4424,39.9611,NA,"CORDIO","MOZ","HIGH"
1998,"Mozambique","Mafamede Island",-16.3333333333333,40," Minimal bleaching","ReefBase","MOZ","LOW"
1999,"Mozambique","Mafamede Island, Angoche",-16.03,40.05,"Little evidence (<2%) of current bleaching.","Schleyer et al, 1999.  A preliminary assessment of coral bleaching in Mozambique. South African Association for Marine Biological Research Unpublished Report no. 168 PO Box 10712, Marine Parade 4056, Durban, South Africa","MOZ","LOW"
1998,"Mozambique","Mike's Cupboard",-23.7814,35.5306,NA,"CORDIO","MOZ","NONE"
1998,"Mozambique","Pemba Bay",-12.2805,40.6033,NA,"CORDIO","MOZ","HIGH"
1998,"Mozambique","Pta Torres",-26.0427,33.0087,NA,"CORDIO","MOZ","HIGH"
1998,"Mozambique","Pta Torres Channel",-25.9557,33.005,NA,"CORDIO","MOZ","NONE"
1998,"Mozambique","Quilalulia Channel",-11.0432,40.6994,NA,"CORDIO","MOZ","HIGH"
1998,"Mozambique","Sencar",-11.2059,40.6715,NA,"CORDIO","MOZ","HIGH"
1998,"Mozambique","Wimbi Beach",-11.5273,40.6275,NA,"CORDIO","MOZ","HIGH"
1998,"Somalia","1km west of Raas Cuuda",10.7898,45.979,"Most coral was dead in obs during Mar 99, related to bleaching","Schleyer,M and Baldwin,R Biodiversity Assesment of the Northern Somali Coast, East of Berbera. IUCN East Africa Programme","SOM","HIGH"
1998,"Somalia","east of El Girdi",10.56,45.22,"Heavy mortality obs on shallow reef in Mar 99 from bleaching some time ago","Schleyer,M and Baldwin,R Biodiversity Assesment of the Northern Somali Coast, East of Berbera. IUCN East Africa Programme","SOM","MEDIUM"
1998,"Somalia","west of Berbera lighthouse",10.4343,44.9681,"No apparent bleaching associated mortality during Mar 99 survey","Schleyer,M and Baldwin,R Biodiversity Assesment of the Northern Somali Coast, East of Berbera. IUCN East Africa Programme","SOM","LOW"
1998,"South Africa","Sodwana",-27.5333,32.6833,"minimal bleaching","Goreau,T. and McClanahan, T. 2000. Conservation of Coral Reefs after the 1998 Global Bleaching Event. Conservation Biology. 14(1):5-15","ZAF","LOW"
1998,"South Africa","South Africa 26-27deg S",-33.6,26.9,"less than 1% bleached","CORDIO Newsletter October 2000","ZAF","LOW"
1998,"Tanzania","Bawi",-6.1925,39.1349,NA,"CORDIO","TZA","MEDIUM"
1998,"Tanzania","Chapwani and Changuu reefs",-6.1274,39.1742,NA,"CORDIO","TZA","HIGH"
1998,"Tanzania","Chole Bay",-7.98333333333333,39.7833333333333," 100% of the hard corals were dead.","ReefBase","TZA","HIGH"
1998,"Tanzania","Chumba Cha Chumbo",-10.298,40.3604,"10","Reef Check Data 2014","TZA","MEDIUM"
1998,"Tanzania","Chumbe",-6.3031,39.195,NA,"CORDIO","TZA","MEDIUM"
1994,"Tanzania","Chumbe Island",-6.35,39.225,"Appears to occurr after extreme low tides when corals have been exposed for long periods. Degree of damage appears to be greater when several low tides occurr colse together. Most of the affected corals seem to recover within two months of the event.","ReefBase","TZA","UNKNOWN"
1998,"Tanzania","Chumbe Island",-6.35,39.225,"Survival after bleaching was about 60-80% Bleaching of hard corals were estimated to be 80-95%.","ReefBase","TZA","HIGH"
1993,"Tanzania","Chumbe Island",-6.35,39.225,"Extent Unspecified; First documented in September 1993.","ReefBase","TZA","UNKNOWN"
1998,"Tanzania","Dar es Salaam",-6.8,39.2833,"bleaching","CORDIO Newsletter October 2000","TZA","MEDIUM"
1998,"Tanzania","Kinasi Pass",-7.96666666666667,39.7833333333333," In the ""coral gardens"" of Kinasi Pass, 80-90% of hard coral have died.","ReefBase","TZA","HIGH"
1998,"Tanzania","Kunduchi",-6.6667,39.2167,"Moderate bleaching","GCRMN 2000. Chapter 4","TZA","MEDIUM"
1998,"Tanzania","Mafia Island",-7.83333333333333,39.8333333333333,"The Mafia Marine Park is considered as the best coral reef in the country with almost 100%mixed coral community cover over vast areas. By the end of October, 80-100% of corals had died.","ReefBase","TZA","HIGH"
1998,"Tanzania","Mafia Island Marine Park",-7.9516,39.8137,"80-100%","Wilkinson, Clive","TZA","HIGH"
1998,"Tanzania","Misali",-5.28333333333333,39.6333333333333," In 1994 Misali Reef was dominated by live hard coral (51% & 74%, see Horrilet al., 1994). However, this decreased to 17% and 7%  respectively in March 1999, after the bleaching event in 1998.","ReefBase","TZA","HIGH"
1998,"Tanzania","Misali Reef, Pemba Island",-5.2333,39.6,"severe bleaching 60-90%","GCRMN 2000. Chapter 4","TZA","HIGH"
1998,"Tanzania","Mnazi Bay, Tanzania",-10.3477,40.3384,"15-25%","Wilkinson, Clive","TZA","MEDIUM"
1998,"Tanzania","Pemba Island",-5.1667,39.8,"extensive","CORDIO Newsletter October 2000","TZA","HIGH"
1998,"Tanzania","Ravula",-10.3025,40.3867,"20","Reef Check Data 2019","TZA","MEDIUM"
1998,"Tanzania","Tanga Coral Gardens",-5.11666666666667,39.2166666666667," About 25% of corals were bleached.","ReefBase","TZA","MEDIUM"
1998,"Tanzania","Tanga, Tanzania",-5.025,39.24,"25%","Wilkinson, Clive","TZA","MEDIUM"
1998,"Tanzania","Tanzania",-8.7242,39.5216,"70% bleaching","Coral Listserver","TZA","HIGH"
1998,"Tanzania","Tutia Island",-8.11666666666667,39.7,"Minimal bleaching","ReefBase","TZA","HIGH"
1998,"Tanzania","Tutia Island",-8.11666666666667,39.7," There is less than 5% coral still alive, with heavy mortality of hard corals.","ReefBase","TZA","HIGH"
1998,"Tanzania","Tutia Reef, Mafia Island Marine Park",-7.6667,40.6667,"severe bleaching","Lindahl, U., Ohman, M.C. and Schelten, C.K. 2001. The 1997/1998 Mass Mortality of Corals: Effects on Fish Communities on a Tanzanian Coral Reef. Marine Pollution Bulletin. 42(2):127-131","TZA","HIGH"
1998,"Tanzania","Unguja Island, Zanzibar",-6.3167,39.3667,"Moderate bleaching; 10% bleaching","GCRMN 2000. Chapter 4","TZA","MEDIUM"
1998,"Tanzania","W coast Zanzibar Island",-6.1667,39.3333,"bleaching","CORDIO Newsletter October 2000","TZA","MEDIUM"
1998,"Tanzania","Zanzibar Islands",-6,39.55,"Two factors seem to be associated with coral bleaching in Tanzania:water temperature and rainfall (salinity). The water temperature was 30.5°C, about 2°C higher than in the previous year (28.5°C). ","ReefBase","TZA","MEDIUM"
1998,"Tanzania","Zanzibar Islands",-6,39.55," Moderate bleaching; Bleaching between 25% to 50%.","ReefBase","TZA","MEDIUM"
1998,"Comoros","Canzoni",-12.3,43.8,"39% mortality on inner slopes. Outer slopes had 67% mortality","GCRMN 2000. Chapter 5","COM","HIGH"
1998,"Comoros","Comoros",-12.1,43.8,"In Grand Comore, bleaching was observed as 50m round patches, probably linked to underground freshwater runoff. Roughly 55% of the corals had died during this particular bleaching event.","ReefBase","COM","MEDIUM"
1998,"Comoros","Grande Comore",-11.4909,43.401,NA,"CORDIO","COM","HIGH"
1998,"Comoros","Itsamia",-12.35,43.8667,"Moderate bleaching; 45% dead coral died due to bleaching","GCRMN 2000. Chapter 5","COM","MEDIUM"
1998,"Comoros","Mayotte Island",-12.7,45.2,"80% on outer barrier reef died","Coral Listserver","COM","HIGH"
1998,"Comoros","Mayotte Island",-12.8333333333333,45.2166666666667," Very high mortality seen on the outer slope.","ReefBase","COM","HIGH"
1998,"Comoros","Mitsmiouli ",-11.4167,43.3,"40-50% coral bleached","GCRMN 2000. Chapter 5","COM","HIGH"
1998,"Comoros","Mohéli",-12.2755,43.75,"50% corals bleached","CORDIO","COM","HIGH"
1998,"Madagascar","Antanambe",-16.5,49.85,"30%","Wilkinson, Clive","MDG","MEDIUM"
1998,"Madagascar","Belo sur Mer",-19.5915,44.425,"30%","Wilkinson, Clive","MDG","MEDIUM"
1998,"Madagascar","Madagascar",-19,46.56,"In February and March, temperatures were 32-33°C. ","ReefBase","MDG","MEDIUM"
1998,"Madagascar","Mananara Marine",-16.3333333333333,49.85,"Extent Unspecified; Corals in shallow water were 40-80% bleached with high mortality. While in deeper water,  10-40% of mixed coral species  were bleached.","ReefBase","MDG","UNKNOWN"
1998,"Madagascar","Manara-Nord, Masoala peninsula",-15,50.5,"Shallow  Acropora 40-80% bleached with high mortality and 10-40% of mixed species in deeper water","Wilkinson, Clive","MDG","MEDIUM"
1998,"Madagascar","Masoala",-15.9833,50.1667,"coral cover reduced from 38% pre bleaching to 28% post bleaching","Goreau,T. and McClanahan, T. 2000. Conservation of Coral Reefs after the 1998 Global Bleaching Event. Conservation Biology. 14(1):5-15","MDG","MEDIUM"
1998,"Madagascar","Masoala",-16.0666666666667,50.1833333333333," Minor bleaching","ReefBase","MDG","LOW"
1998,"Madagascar","Mitsio Archipelago",-12.82,48.6376,"30%","Wilkinson, Clive","MDG","MEDIUM"
1998,"Madagascar","Nosy Be",-13.1873,48.2823,"30%","Wilkinson, Clive","MDG","MEDIUM"
1998,"Madagascar","Toliara",-23.4941,43.7538,"30%","Wilkinson, Clive","MDG","MEDIUM"
1998,"Madagascar","Tulear ( Toliara )",-23.4166666666667,43.6666666666667," Minor bleaching","ReefBase","MDG","LOW"
1998,"Mauritius","Balaclava ( Arsenal Bay / Baie de L'Arsenal )",-20.1,57.5," Minor bleaching; Total bleaching being 12%.","ReefBase","MUS","LOW"
1998,"Mauritius","Balaclava Bay marine park",-20.1602,57.4528,"39% of live corals wholly or partially bleached","CORDIO","MUS","MEDIUM"
1998,"Mauritius","Benitiers Island ( L'ile aux Benitiers )",-20.4333333333333,57.3416666666667,"Surveys showed from 1-15% bleaching in many locations, and up to 50% corals with minor loss of colour. Temperatures were about 3°C above the normal of 27°C. ","ReefBase","MUS","MEDIUM"
1998,"Mauritius","Blue Bay marine park",-20.4132,57.7133,"31% of live corals wholly or partially bleached","CORDIO","MUS","MEDIUM"
1998,"Mauritius","Mauritius",-20.2909,57.7957,"1-15%","Wilkinson, Clive","MUS","LOW"
1998,"Mauritius","Mauritius",-20.1333333333333,57.4666666666667,"Minor bleaching; Temperatures were about 3°C above the normal 27°C.","ReefBase","MUS","LOW"
1998,"Mauritius","Rodrigues",-19.75,63.4166666666667," Minor bleaching","ReefBase","MUS","LOW"
1998,"Mauritius","Rodrigues",-19.8,63.3,"bleaching","Obura,D. 2001. Coral Reef Bleaching and Monitoring in the Indian Ocean.","MUS","MEDIUM"
1998,"Mauritius","Trou aux Biches",-20.05,57.5333,"Moderate bleaching; 6% corals completely bleached. 27% partially bleached","GCRMN 2000. Chapter 5","MUS","MEDIUM"
1998,"Mauritius","Trou d'Eau Douce Fir",-20.2483333333333,57.795," Minor bleaching; The few dead coral colonies had begun to be colonised by filamentous algae.","ReefBase","MUS","LOW"
1998,"Mayotte","Mayotte",-13.0668,45.1106,"started southside that is enclosed but exposed to trade winds. North side cooler waters not effected as such.","Coral Listserver","MYT","MEDIUM"
1998,"Réunion","Corne Nord, St Leu Ville Reef",-21.26,55.325,"nminor bleaching","GCRMN 2000. Chapter 5","REU","LOW"
1998,"Réunion","Planch'alizé reef flat",-21.1544,55.272,"some noticed","CORDIO","REU","LOW"
1998,"Réunion","Reunion",-21.1135,55.2526,"reef flats at La Reunion, Mascarene islands","Coral Listserver","REU","MEDIUM"
1998,"Réunion","Reunion",-21.1166666666667,55.5,"On the reef slopes, coral bleaching has been fond down to 20m and Porites colonies have been particularly badly affected; about 20 - 50% of the hard and soft coral cover has disappeared to be replaced by algae. ","ReefBase","REU","UNKNOWN"
1998,"Réunion","Reunion",-21.1166666666667,55.5,"Water temperatures were high (but not recorded) and there was very heavy rainfall for most of February. No recovery was seen several months later, with corals now covered with turf algae. ","ReefBase","REU","MEDIUM"
1998,"Réunion","Réunion",-21.258,55.3253,"30-50%","Wilkinson, Clive","REU","MEDIUM"
1998,"Réunion","Sainte Rose",-21.1179,55.8251,"some noticed","CORDIO","REU","LOW"
1998,"Réunion","Toboggan",-21.05,55.23,"moderate","GCRMN 2000. Chapter 5","REU","MEDIUM"
1998,"Réunion","Trois Chameaux",-21.3322,55.4557,"no bleaching","CORDIO","REU","NONE"
1998,"Seychelles","Aldabra",-9.41666666666667,46.4166666666667,"The dead corals were covered with filamentous algae, which were expanding to cover areas of dying corals Corals at 14 sites in the Seychelles Marine Park system showed that an average of about 75% were recently dead (ranging ffrom 50% to 95%).","ReefBase","SYC","HIGH"
1998,"Seychelles","Aldabra Atoll",-9.4476,46.3991,"30% bleached","Spencer, T., Teleki, K.A., Bradshaw, C. and Spalding, M.D. 2000. Coral Bleaching in the Southern Seychelles during the 1997-1998 Indian Ocean Warm Event. Marine Pollution Bulletin. 40(7): 569-586","SYC","MEDIUM"
1998,"Seychelles","Alphonse Atoll",-7.0113,52.7348,"54% bleached","Spencer, T., Teleki, K.A., Bradshaw, C. and Spalding, M.D. 2000. Coral Bleaching in the Southern Seychelles during the 1997-1998 Indian Ocean Warm Event. Marine Pollution Bulletin. 40(7): 569-586","SYC","HIGH"
1998,"Seychelles","Cousine",-4.35,55.6333,"bleaching","Coral Listserver","SYC","MEDIUM"
1998,"Seychelles","Cousine Island",-4.35,55.65,">50% of hard and soft coral bleached","Mark Spalding unpublished data","SYC","HIGH"
1998,"Seychelles","Curieuse",-4.2667,55.7333,"bleaching","Coral Listserver","SYC","MEDIUM"
1998,"Seychelles","Felicite",-4.3333,55.8667,"bleaching","Coral Listserver","SYC","MEDIUM"
1998,"Seychelles","Grand Soeur",-4.2833,55.8667,"bleaching","Coral Listserver","SYC","MEDIUM"
1998,"Seychelles","Ile Cerf",-4.6333,55.5,"bleaching","Coral Listserver","SYC","MEDIUM"
1998,"Seychelles","Ile Moyenne",-4.6167,55.5,"bleaching","Coral Listserver","SYC","MEDIUM"
1998,"Seychelles","La Digue",-4.35,55.8333,"bleaching","Coral Listserver","SYC","MEDIUM"
1998,"Seychelles","Lagoon Channel - Alphonse Atoll",-7.03,52.76,NA,"Mark Spalding unpublished data","SYC","UNKNOWN"
1998,"Seychelles","Mahè",-4.6,55.4666666666667," In January 1999, dead corals around the main island of Mahe were covered by numerous filamentous algae.","ReefBase","SYC","LOW"
1998,"Seychelles","North West Coast St. Pierre",-9.31,50.71,">50% of hard and soft coral bleached","Mark Spalding unpublished data","SYC","HIGH"
1998,"Seychelles","Outer Slope West - Alphonse Atoll",-7.01,52.73,">50% of hard and soft coral bleached","Mark Spalding unpublished data","SYC","HIGH"
1998,"Seychelles","Praslin",-4.3167,55.7333,"bleaching","Coral Listserver","SYC","MEDIUM"
1998,"Seychelles","Providence",-9.38333333333333,51.05,"Temperatures recorded in situ were high, from 29-34°C, with the exceptional 37°C in some lagoons. ","ReefBase","SYC","HIGH"
1998,"Seychelles","Providence - Cerf",-9.5364,50.9956,"49% bleached","Spencer, T., Teleki, K.A., Bradshaw, C. and Spalding, M.D. 2000. Coral Bleaching in the Southern Seychelles during the 1997-1998 Indian Ocean Warm Event. Marine Pollution Bulletin. 40(7): 569-586","SYC","MEDIUM"
1998,"Seychelles","Seychelles",-4.3347,55.7177,NA,"NOAA database","SYC","HIGH"
1998,"Seychelles","Seychelles",-4.6461,55.4845,"severe bleaching","NOAA database","SYC","HIGH"
1998,"Seychelles","Seychelles",-4.5,55.5,"This has led to the breakdown of the reef infrastructure and is likely to result in gradual erosion of the beaches. Live coral cover of the Seychelles granitic islands have been reduced to less than 10% on most reefs and signs of recovery are slight with ","ReefBase","SYC","HIGH"
1998,"Seychelles","South East Coast St. Pierre",-9.33,50.73,">50% of hard and soft coral bleached","Mark Spalding unpublished data","SYC","HIGH"
1998,"Seychelles","St. Pierre",-9.31666666666667,51.7166666666667,"Minimal bleaching","ReefBase","SYC","LOW"
1998,"Seychelles","St. Pierre leaward coast",-9.2461,51.0431,"87% bleached","Spencer, T., Teleki, K.A., Bradshaw, C. and Spalding, M.D. 2000. Coral Bleaching in the Southern Seychelles during the 1997-1998 Indian Ocean Warm Event. Marine Pollution Bulletin. 40(7): 569-586","SYC","HIGH"
1998,"Seychelles","St. Pierre windward coast",-9.2126,51.0359,"77% bleached","Spencer, T., Teleki, K.A., Bradshaw, C. and Spalding, M.D. 2000. Coral Bleaching in the Southern Seychelles during the 1997-1998 Indian Ocean Warm Event. Marine Pollution Bulletin. 40(7): 569-586","SYC","HIGH"
1998,"Seychelles","Ste Anne",-4.6,55.5,"bleaching","Coral Listserver","SYC","MEDIUM"
1998,"Seychelles","Ternay Bay",-4.6169,55.3669,"coral cover dropped from 54.6% in 1997 to 3% in June 1998 due to bleaching. ","GCRMN 2000. Chapter 5","SYC","HIGH"
1998,"Barbados","Carribee Bank, Barbados",13.0391,-59.5231,NA,"Wilkinson, Clive","BRB","MEDIUM"
1998,"Guadeloupe","Guadaloupe",16.3727,-61.6516,"severe bleaching","Wilkinson, Clive","GLP","HIGH"
1999,"Guadeloupe","Guadaloupe",16.3727,-61.6516,"50% bleaching","GCRMN 2000. Chapter 17","GLP","HIGH"
1998,"Guadeloupe","Guadeloupe",16.25,-61.8333333333333," ","ReefBase","GLP","HIGH"
1998,"Guadeloupe","St. Barthelemy",17.9,-62.85," Partial mortalities","ReefBase","GLP","UNKNOWN"
1998,"Martinique","Martinique",14.4,-61.2,"59% corals affected with 69% surface bleached","GCRMN 2000. Chapter 17","MTQ","HIGH"
1998,"Netherlands Antilles",NA,5.542,125.221,"yellow","R@RSEA: UP Marine Science In","ANT","HIGH"
1999,"Netherlands Antilles","BNK01: Saba Bank 1",17.463,-63.22267,NA,"Atlantic and Gulf Rapid Reef Assessment (AGRRA) Database (www.agrra.org). Batch: NethAnt-1999B","ANT","LOW"
1999,"Netherlands Antilles","BNK02: Saba Bank 2",17.48683,-63.23167,NA,"Atlantic and Gulf Rapid Reef Assessment (AGRRA) Database (www.agrra.org). Batch: NethAnt-1999B","ANT","LOW"
1999,"Netherlands Antilles","BNK03: Saba Bank 3",17.48783,-63.23233,NA,"Atlantic and Gulf Rapid Reef Assessment (AGRRA) Database (www.agrra.org). Batch: NethAnt-1999B","ANT","LOW"
1998,"Netherlands Antilles","Bonaire",12.078,-68.2158,"bleaching first noticed 11/03/97 as minimal then again 09/02/98 (source NOAA Database Id No 4 & 107)","NOAA database","ANT","MEDIUM"
1998,"Netherlands Antilles","Bonaire",12.2417,-68.2428,NA,"Wilkinson, Clive","ANT","MEDIUM"
1998,"Netherlands Antilles","Bonaire",12.1833333333333,-68.3," Partial bleaching","ReefBase","ANT","LOW"
1992,"Netherlands Antilles","Bonaire",12.1833333333333,-68.3,"When observations began in May 21 1992 until the afternoon of June 25,1992 reef conditions were normal. On June 26 (0930) water temperature from the surface up to at least 30 m depth decreased from the normal 27.5ºC - 28ºC to 25ºC.   Bleaching manifested ","ReefBase","ANT","MEDIUM"
1999,"Netherlands Antilles","EUX01: Barracuda Reef",17.468,-62.99166,NA,"Atlantic and Gulf Rapid Reef Assessment (AGRRA) Database (www.agrra.org). Batch: NethAnt-1999B","ANT","LOW"
1999,"Netherlands Antilles","EUX02: Anchor Point",17.46433,-62.98783,NA,"Atlantic and Gulf Rapid Reef Assessment (AGRRA) Database (www.agrra.org). Batch: NethAnt-1999B","ANT","LOW"
1999,"Netherlands Antilles","EUX03: Hangover",17.46483,-62.986,NA,"Atlantic and Gulf Rapid Reef Assessment (AGRRA) Database (www.agrra.org). Batch: NethAnt-1999B","ANT","LOW"
1999,"Netherlands Antilles","EUX04: The Blocks",17.46433,-62.985,NA,"Atlantic and Gulf Rapid Reef Assessment (AGRRA) Database (www.agrra.org). Batch: NethAnt-1999B","ANT","LOW"
1999,"Netherlands Antilles","EUX05: The Ledges",17.46333,-62.98466,NA,"Atlantic and Gulf Rapid Reef Assessment (AGRRA) Database (www.agrra.org). Batch: NethAnt-1999B","ANT","LOW"
1999,"Netherlands Antilles","EUX06: Five Fingers",17.46483,-62.96667,NA,"Atlantic and Gulf Rapid Reef Assessment (AGRRA) Database (www.agrra.org). Batch: NethAnt-1999B","ANT","LOW"
1999,"Netherlands Antilles","EUX07: Valley of the Sponges",17.464,-62.9825,NA,"Atlantic and Gulf Rapid Reef Assessment (AGRRA) Database (www.agrra.org). Batch: NethAnt-1999B","ANT","LOW"
1999,"Netherlands Antilles","EUX08: The Humps",17.4635,-62.97817,NA,"Atlantic and Gulf Rapid Reef Assessment (AGRRA) Database (www.agrra.org). Batch: NethAnt-1999B","ANT","LOW"
1999,"Netherlands Antilles","EUX09: Mushroom Gardens",17.4625,-62.97766,NA,"Atlantic and Gulf Rapid Reef Assessment (AGRRA) Database (www.agrra.org). Batch: NethAnt-1999B","ANT","LOW"
1999,"Netherlands Antilles","EUX10: Mushroom Gardens South",17.46167,-62.97766,NA,"Atlantic and Gulf Rapid Reef Assessment (AGRRA) Database (www.agrra.org). Batch: NethAnt-1999B","ANT","MEDIUM"
1992,"Netherlands Antilles","Lac Lagoon",12.05,-68.2666666666667,"The bleaching of corals in Bonaire (June 26-July 2, 1992) probably resulted from thermal shock caused by the rapidity of cooling combined with the reduction of water temperature to below the normal thermal tolerance of these corals.  A comparison with the","ReefBase","ANT","LOW"
1999,"Netherlands Antilles","SAB01: Core Gut",17.63083,-63.215,NA,"Atlantic and Gulf Rapid Reef Assessment (AGRRA) Database (www.agrra.org). Batch: NethAnt-1999B","ANT","LOW"
1999,"Netherlands Antilles","SAB02: Hole in the Corner",17.615,-63.225,NA,"Atlantic and Gulf Rapid Reef Assessment (AGRRA) Database (www.agrra.org). Batch: NethAnt-1999B","ANT","LOW"
1999,"Netherlands Antilles","SAB03: Tent Reef",17.61633,-63.2585,NA,"Atlantic and Gulf Rapid Reef Assessment (AGRRA) Database (www.agrra.org). Batch: NethAnt-1999B","ANT","LOW"
1999,"Netherlands Antilles","SAB04: Hot Springs",17.62483,-63.2595,NA,"Atlantic and Gulf Rapid Reef Assessment (AGRRA) Database (www.agrra.org). Batch: NethAnt-1999B","ANT","LOW"
1999,"Netherlands Antilles","SAB05: Ladder Labyrinth",17.62667,-63.25967,NA,"Atlantic and Gulf Rapid Reef Assessment (AGRRA) Database (www.agrra.org). Batch: NethAnt-1999B","ANT","LOW"
1999,"Netherlands Antilles","SAB06: Babylon",17.62817,-63.2595,NA,"Atlantic and Gulf Rapid Reef Assessment (AGRRA) Database (www.agrra.org). Batch: NethAnt-1999B","ANT","LOW"
1999,"Netherlands Antilles","SAB07: Porites Point",17.62933,-63.25883,NA,"Atlantic and Gulf Rapid Reef Assessment (AGRRA) Database (www.agrra.org). Batch: NethAnt-1999B","ANT","LOW"
1999,"Netherlands Antilles","SAB08: Torrens Point",17.64333,-63.25317,NA,"Atlantic and Gulf Rapid Reef Assessment (AGRRA) Database (www.agrra.org). Batch: NethAnt-1999B","ANT","LOW"
1999,"Netherlands Antilles","SAB09: Green Island",17.64967,-63.228,NA,"Atlantic and Gulf Rapid Reef Assessment (AGRRA) Database (www.agrra.org). Batch: NethAnt-1999B","ANT","LOW"
1999,"Netherlands Antilles","SXM01: Mike's Maze",17.99567,-63.06,NA,"Atlantic and Gulf Rapid Reef Assessment (AGRRA) Database (www.agrra.org). Batch: NethAnt-1999B","ANT","MEDIUM"
1999,"Netherlands Antilles","SXM02: Hens & Chicks",18.01067,-63.008,NA,"Atlantic and Gulf Rapid Reef Assessment (AGRRA) Database (www.agrra.org). Batch: NethAnt-1999B","ANT","MEDIUM"
1998,"Netherlands Antilles","Twin Peaks",12.2732,-68.4218,"0","Reef Check Data 2030","ANT","NONE"
1998,"St. Lucia","Soufriere",13.8333333333333,-61.0666666666667," ","ReefBase","LCA","HIGH"
1998,"Trinidad and Tobago","Tobago",11.2666666666667,-60.65," Extent Unspecified","ReefBase","TTO","UNKNOWN"
1998,"Virgin Islands (British)","Virgin Gorda",18.4833333333333,-64.4," Bleaching affected 20% of the coral population.","ReefBase","VBG","MEDIUM"
1998,"Belize","Alligator Caye",17.18,-88.08,"25-30% bleached","NOAA database","BLZ","MEDIUM"
1995,"Belize","Ambergris Cay",18.0333333333333,-87.8833333333333," Widespread but patchy","ReefBase","BLZ","HIGH"
1998,"Belize","Ambergris Cay",18.0333333333333,-87.8833333333333," ","ReefBase","BLZ","LOW"
1998,"Belize","Ambergris Caye",18.0048,-87.8997,"severe bleaching","Coral Listserver","BLZ","HIGH"
1999,"Belize","Ambergris Caye",18.0048,-87.8997,"low bleaching","Coral Listserver","BLZ","LOW"
1998,"Belize","Baking Swash",16.79,-87.69,"moderate-severe","NOAA database","BLZ","MEDIUM"
1998,"Belize","Belize",17.0905,-87.9996,NA,"NOAA database","BLZ","MEDIUM"
1998,"Belize","Belize",17.0022,-88.0101,"moderate-severe","NOAA database","BLZ","MEDIUM"
1995,"Belize","Belize",17.3166666666667,-88,"The episode this year appears to be the first major event for Belize and seems to have begun seriously in mid-September, although some localized bleaching was observed in July.  It appears to be part of a much more widespread bleaching event in the Wester","ReefBase","BLZ","UNKNOWN"
1998,"Belize","Belize",17.3166666666667,-88,"The entire Belizean coral reef ecosystem has experienced a massive and
pervasive event of coral bleaching. Observation indicate that  bleaching occurs down to a depth of at least 8 meters on the fore reef, top reef and back reef of the main barrier reef ","ReefBase","BLZ","HIGH"
1998,"Belize","Belize",17.3166666666667,-88," Severely bleached","ReefBase","BLZ","HIGH"
1998,"Belize","Bird Reef",17.3502,-88.2711,"massive bleaching","Wilkinson, Clive. http://coral.aoml.noaa.gov/bulls/clive-bleaching.html","BLZ","HIGH"
1999,"Belize","Bread & Butter",16.77,-88.16,NA,"Atlantic and Gulf Rapid Reef Assessment (AGRRA) Database (www.agrra.org). Batch: Belize-1999A","BLZ","LOW"
1998,"Belize","Calabash Caye",17.27,-87.82,"25-30% bleached","NOAA database","BLZ","MEDIUM"
1995,"Belize","Carrie Bow Cay",16.8,-88.0833333333333," Widespread but patchy","ReefBase","BLZ","MEDIUM"
1998,"Belize","Cat Cay",16.6667,-88.1667,"significant bleaching. Reduced coral cover of Agaricia tenuifolia from approx 50% to 1/2%","Aronson, R.B., Precht, W.F., Macintyre, I.G. and Murdoch, T.J.T. 2000. Coral bleach-out in Belize. Nature. 405:36 ","BLZ","MEDIUM"
1998,"Belize","Central Shelf Lagoon",16.6,-88.2,"100% bleaching of Agaricia tenuifolia","http://www.osdpd.noaa.gov/PSB/EPS/SST/climohot_1999.html","BLZ","HIGH"
1998,"Belize","Channel Cay, Central Lagoon",16.63,-88.13,"virtually every living colony bleached","Coral Listserver","BLZ","HIGH"
1998,"Belize","Cocoplum Cayes",16.87,-88.12,"massive bleaching","Wilkinson, Clive. http://coral.aoml.noaa.gov/bulls/clive-bleaching.html","BLZ","HIGH"
1998,"Belize","Crawl Caye",16.6186,-88.2309,"85% Montastrea annularis severly bleached","Coral Listserver","BLZ","MEDIUM"
1998,"Belize","Crawl Caye",16.5981666666667,-88.2251666666667,"Unusually high sea surface temperatures were observed in association with bleaching in Siderastrea and some 85% of Montastrea annularis. ","ReefBase","BLZ","UNKNOWN"
1998,"Belize","Crawl Caye",16.5981666666667,-88.2251666666667,"The bleaching is correlated with exceptionally warm water, and calm weather. Water temperatures have been consistently between 30-32°C, and on the surface near some of the cayes, it was between 36-38°C. ","ReefBase","BLZ","HIGH"
1999,"Belize","Curlew",16.78,-88.08,NA,"Atlantic and Gulf Rapid Reef Assessment (AGRRA) Database (www.agrra.org). Batch: Belize-1999A","BLZ","LOW"
1998,"Belize","Curlew Bank, south of Carrie Bow Cay",16.77,-88.07,NA,"Coral Listserver","BLZ","LOW"
1998,"Belize","Curlew Bank, south of Carrie Bow Cay",16.77,-88.07,"partially bleached Agaricia tenuifolia","http://www.osdpd.noaa.gov/PSB/EPS/SST/climohot_1999.html","BLZ","MEDIUM"
1999,"Belize","Eagle Ray Canyon",17.92,-87.95,NA,"Atlantic and Gulf Rapid Reef Assessment (AGRRA) Database (www.agrra.org). Batch: Belize-1999A","BLZ","LOW"
1998,"Belize","Gallows",17.4911,-88.0462,"25-30% bleached","NOAA database","BLZ","MEDIUM"
1998,"Belize","Gallows Point",17.4833333333333,-88.05,"Moderate bleaching; The bleaching is correlated with exceptionally warm water, and calm weather. Water temperatures have been consistently between 30-32°C, and on the surface near some of the cayes, it was between 36-38°C. Bleaching was between 25-30%.","ReefBase","BLZ","MEDIUM"
1998,"Belize","Glovers Reef",16.8,-87.7666666666667,"Bleaching was noted on Sept. 7 at Glover's Reef by the Wildlife Conservation Society staff. Since then the bleaching has intensified and spread. Bright (1998) presumes that the cause of the bleaching (high sea water temperature) manifested itself around t","ReefBase","BLZ","HIGH"
1998,"Belize","Glovers Reef",16.8,-87.7666666666667,"The bleaching is correlated with exceptionally warm water, and calm weather. Water temperatures have been consistently between 30-32°C, and on the surface near some of the cayes, it was between 36-38°C. Bleaching was measured at 76% on the western fore re","ReefBase","BLZ","HIGH"
1998,"Belize","Glover's Reef Atoll",16.8086,-87.6901,"fore reef,top reef, back reef and patch reefs","Coral Listserver","BLZ","HIGH"
1998,"Belize","Glover's Reef Atoll",16.8086,-87.6901,"still widespread bleaching on forereef, backreef & lagoonal patch reefs","http://www.osdpd.noaa.gov/PSB/EPS/SST/climohot_1999.html","BLZ","HIGH"
1998,"Belize","Goffs Caye",17.33,-88.03,"25-30% bleached","NOAA database","BLZ","MEDIUM"
1999,"Belize","Half Moon Caye",17.2,-87.5333,"low bleaching","Coral Listserver","BLZ","LOW"
1995,"Belize","Half Moon Caye",17.15,-87.5666666666667,"Widespread","ReefBase","BLZ","HIGH"
1999,"Belize","HOL Chan Marine Reserve",17.89,-87.96,NA,"Atlantic and Gulf Rapid Reef Assessment (AGRRA) Database (www.agrra.org). Batch: Belize-1999A","BLZ","LOW"
1998,"Belize","Laughing Bird Reef",16.43,-88.2,"massive bleaching","Wilkinson, Clive. http://coral.aoml.noaa.gov/bulls/clive-bleaching.html","BLZ","HIGH"
1998,"Belize","Lighthouse Reef",17.3,-87.5,"The bleaching is correlated with exceptionally warm water, and calm weather. Water temperatures have been consistently between 30-32°C, and on the surface near some of the cayes, it was between 36-38°C. ","ReefBase","BLZ","HIGH"
1998,"Belize","Lighthouse Reef, Belize",17.4054,-87.546,NA,"Wilkinson, Clive","BLZ","HIGH"
1998,"Belize","Long Caye",16.73,-87.77,"moderate-severe","NOAA database","BLZ","MEDIUM"
1999,"Belize","Long Caye",16.73,-87.77,"low bleaching","Coral Listserver","BLZ","LOW"
1999,"Belize","Mexico Rocks",17.94,-87.94,NA,"Atlantic and Gulf Rapid Reef Assessment (AGRRA) Database (www.agrra.org). Batch: Belize-1999A","BLZ","LOW"
1999,"Belize","Norval",16.71,-88.17,NA,"Atlantic and Gulf Rapid Reef Assessment (AGRRA) Database (www.agrra.org). Batch: Belize-1999A","BLZ","MEDIUM"
1999,"Belize","Peter Douglas",16.71,-88.17,NA,"Atlantic and Gulf Rapid Reef Assessment (AGRRA) Database (www.agrra.org). Batch: Belize-1999A","BLZ","LOW"
1998,"Belize","Ranguana Cay",16.3333333333333,-88.1666666666667,"The bleaching is correlated with exceptionally warm water, and calm weather. Water temperatures have been consistently between 30-32°C, and on the surface near some of the cayes, it was between 36-38°C. ","ReefBase","BLZ","HIGH"
1998,"Belize","Ranguana Pass",16.21,-88.18,"fore reef, top reef and back reef of the main barrier reef","Coral Listserver","BLZ","HIGH"
1998,"Belize","Rum Point",16.503,-88.3828,"massive bleaching","Wilkinson, Clive. http://coral.aoml.noaa.gov/bulls/clive-bleaching.html","BLZ","HIGH"
1999,"Belize","San Pedro Canyon",17.92,-87.94,NA,"Atlantic and Gulf Rapid Reef Assessment (AGRRA) Database (www.agrra.org). Batch: Belize-1999A","BLZ","LOW"
1998,"Belize","Scipio Reef",16.47,-88.28,"massive bleaching","Wilkinson, Clive. http://coral.aoml.noaa.gov/bulls/clive-bleaching.html","BLZ","HIGH"
1998,"Belize","shallow patch reefs",16.6155,-88.0669,"moderate-severe","NOAA database","BLZ","MEDIUM"
1997,"Belize","Snake Keys",16.1833,-88.5667,"bleaching","GCRMN 2000. Chapter 16","BLZ","LOW"
1999,"Belize","South Water Caye",16.81,-88.06,NA,"Atlantic and Gulf Rapid Reef Assessment (AGRRA) Database (www.agrra.org). Batch: Belize-1999A","BLZ","LOW"
1998,"Belize","South Water reef",16.8,-88.08,"massive bleaching","Wilkinson, Clive. http://coral.aoml.noaa.gov/bulls/clive-bleaching.html","BLZ","HIGH"
1999,"Belize","South Water reef",16.8,-88.08,"low bleaching","Coral Listserver","BLZ","LOW"
1999,"Belize","Southern Belize",16.2,-88.35,"severe bleaching in lagoon all summer of 1998","http://www.osdpd.noaa.gov/PSB/EPS/SST/climohot_1999.html","BLZ","HIGH"
1999,"Belize","Tobacco",17.92,-87.94,NA,"Atlantic and Gulf Rapid Reef Assessment (AGRRA) Database (www.agrra.org). Batch: Belize-1999A","BLZ","LOW"
1999,"Belize","Tobacco Caye",16.8833,-88.05,"low bleaching","Coral Listserver","BLZ","LOW"
1999,"Belize","Tunicate Cove",16.66,-88.19,NA,"Atlantic and Gulf Rapid Reef Assessment (AGRRA) Database (www.agrra.org). Batch: Belize-1999A","BLZ","LOW"
1995,"Belize","Turneffe",17.4166666666667,-87.8333333333333," Widespread but patchy","ReefBase","BLZ","HIGH"
1998,"Belize","Turneffe",17.4166666666667,-87.8333333333333,"The bleaching is correlated with exceptionally warm water, and calm weather. Water temperatures have been consistently between 30-32°C, and on the surface near some of the cayes, it was between 36-38°C. ","ReefBase","BLZ","MEDIUM"
1998,"Belize","Turneffe Atoll",17.5,-87.85,"25-30% bleached","NOAA database","BLZ","MEDIUM"
1999,"Belize","Wee Wee Caye Patch",16.76,-88.14,NA,"Atlantic and Gulf Rapid Reef Assessment (AGRRA) Database (www.agrra.org). Batch: Belize-1999A","BLZ","LOW"
1999,"Belize","Wee Wee Caye Ridge",16.76,-88.14,NA,"Atlantic and Gulf Rapid Reef Assessment (AGRRA) Database (www.agrra.org). Batch: Belize-1999A","BLZ","LOW"
1995,"Honduras","Cayos Cochinos",15.9667,-86.45,"73% corals bleached","GCRMN 2000. Chapter 16","HND","HIGH"
1997,"Honduras","Cayos Cochinos",15.9667,-86.45,"less severe than in 1995","GCRMN 2000. Chapter 16","HND","MEDIUM"
1998,"Honduras","Honduras",15.9316,-86.4011,"50%","Wilkinson, Clive","HND","MEDIUM"
1998,"Honduras","Roatan Island",16.3333333333333,-86.4666666666667," Moderate bleaching; Up to 50% of live coral cover showed bleaching with most of the coral species affected.","ReefBase","HND","MEDIUM"
1998,"Mexico","Akumal",20.4167,-87.3,"95-100% bleaching","http://www.osdpd.noaa.gov/PSB/EPS/SST/climohot_1999.html","MEX","HIGH"
1997,"Mexico","Cabo Pulmo",23.4,-109.4,"Bleaching 1st noticed July 97 on isolated but fully bleached Pocillopora spp (3m). Oct 30% bleached","Bonilla, H.R. 2001. Effects of the 1997-1998 El Nino Southern Oscillation on coral communities of the Gulf of California, Mexico. Bulletin of Marine Science. 69(1):251-266","MEX","MEDIUM"
1998,"Mexico","Caletitas, Bahia Banderas",20.53,-105.32,"91%","Carriquiry, J.D., Cupul-Magana, A.L., Rodriguez-Zaragoza, F. and Medina-Rosas, P. 2001. Coral Bleaching and Mortality in the Mexican Pacific during the 1997 - 198 El Nino and prediction from a remote sensing approach. Bull of Mar Sci. 69(1):237-249","MEX","HIGH"
1998,"Mexico","Careyeros, Bahia Banderas",20.81,-105.5,"100%","Carriquiry, J.D., Cupul-Magana, A.L., Rodriguez-Zaragoza, F. and Medina-Rosas, P. 2001. Coral Bleaching and Mortality in the Mexican Pacific during the 1997 - 198 El Nino and prediction from a remote sensing approach. Bull of Mar Sci. 69(1):237-249","MEX","HIGH"
1997,"Mexico","Chileno Bay",23,-109.7,"Moderate bleaching; 19% bleached","Bonilla, H.R. 2001. Effects of the 1997-1998 El Nino Southern Oscillation on coral communities of the Gulf of California, Mexico. Bulletin of Marine Science. 69(1):251-266","MEX","MEDIUM"
1998,"Mexico","Chimo, Bahia Banderas",20.49,-105.5,"55%","Carriquiry, J.D., Cupul-Magana, A.L., Rodriguez-Zaragoza, F. and Medina-Rosas, P. 2001. Coral Bleaching and Mortality in the Mexican Pacific during the 1997 - 198 El Nino and prediction from a remote sensing approach. Bull of Mar Sci. 69(1):237-249","MEX","HIGH"
1998,"Mexico","Chocota, Bahia Banderas",20.5,-105.47,"65%","Carriquiry, J.D., Cupul-Magana, A.L., Rodriguez-Zaragoza, F. and Medina-Rosas, P. 2001. Coral Bleaching and Mortality in the Mexican Pacific during the 1997 - 198 El Nino and prediction from a remote sensing approach. Bull of Mar Sci. 69(1):237-249","MEX","HIGH"
1997,"Mexico","Concepcion Bay",26.9,-111.9,"moderate","Bonilla, H.R. 2001. Effects of the 1997-1998 El Nino Southern Oscillation on coral communities of the Gulf of California, Mexico. Bulletin of Marine Science. 69(1):251-266","MEX","MEDIUM"
1993,"Mexico","Cozumel",20.4666666666667,-86.9666666666667," Extent Unspecified","ReefBase","MEX","UNKNOWN"
1998,"Mexico","Cozumel",20.5329,-87.0101,"no bleaching","Wilkinson, Clive. http://coral.aoml.noaa.gov/bulls/clive-bleaching.html","MEX","NONE"
1997,"Mexico","Gulf of California",24.781,-110.4833,"25%","Wilkinson, Clive","MEX","MEDIUM"
1997,"Mexico","Jalisco",21.4709,-105.2144,"25%","Wilkinson, Clive","MEX","MEDIUM"
1997,"Mexico","La Paz Bay",24.1,-110.4,"moderate","Bonilla, H.R. 2001. Effects of the 1997-1998 El Nino Southern Oscillation on coral communities of the Gulf of California, Mexico. Bulletin of Marine Science. 69(1):251-266","MEX","MEDIUM"
1998,"Mexico","Las Iglesias, Bahia Banderas",20.48,-105.6,"30%","Carriquiry, J.D., Cupul-Magana, A.L., Rodriguez-Zaragoza, F. and Medina-Rosas, P. 2001. Coral Bleaching and Mortality in the Mexican Pacific during the 1997 - 198 El Nino and prediction from a remote sensing approach. Bull of Mar Sci. 69(1):237-249","MEX","MEDIUM"
1990,"Mexico","Las Redes",20.2666666666667,-87.2166666666667,"Coral mortality reported byd Spalding and Harcourt (1991). ","ReefBase","MEX","UNKNOWN"
1998,"Mexico","Mahahual, Mexican Carribean",18.8126,-87.3594,NA,"NOAA database","MEX","LOW"
1998,"Mexico","Majahuitas, Bahia Banderas",20.52,-105.36,"86%","Carriquiry, J.D., Cupul-Magana, A.L., Rodriguez-Zaragoza, F. and Medina-Rosas, P. 2001. Coral Bleaching and Mortality in the Mexican Pacific during the 1997 - 198 El Nino and prediction from a remote sensing approach. Bull of Mar Sci. 69(1):237-249","MEX","HIGH"
1997,"Mexico","mouth into Gulf of California",23.4303,-109.3849,NA,"NOAA database","MEX","MEDIUM"
1997,"Mexico","Nayarit",21.0491,-105.2573,"60%","Wilkinson, Clive","MEX","HIGH"
1998,"Mexico","Oaxaca",16,-95,"bleaching minor in sept but must have intensified later in the yr with the La Nina as 70% mortality reported (GCRMN 2000)","Wilkinson, Clive","MEX","HIGH"
1998,"Mexico","Paredon, Bahia Banderas",20.51,-105.38,"70%","Carriquiry, J.D., Cupul-Magana, A.L., Rodriguez-Zaragoza, F. and Medina-Rosas, P. 2001. Coral Bleaching and Mortality in the Mexican Pacific during the 1997 - 198 El Nino and prediction from a remote sensing approach. Bull of Mar Sci. 69(1):237-249","MEX","HIGH"
1997,"Mexico","Pichilingue Bay",24.3,-110.3,"31% bleached","Bonilla, H.R. 2001. Effects of the 1997-1998 El Nino Southern Oscillation on coral communities of the Gulf of California, Mexico. Bulletin of Marine Science. 69(1):251-266","MEX","MEDIUM"
1998,"Mexico","Punta Mita, Bahia Banderas",20.79,-105.4,"100%","Carriquiry, J.D., Cupul-Magana, A.L., Rodriguez-Zaragoza, F. and Medina-Rosas, P. 2001. Coral Bleaching and Mortality in the Mexican Pacific during the 1997 - 198 El Nino and prediction from a remote sensing approach. Bull of Mar Sci. 69(1):237-249","MEX","HIGH"
1997,"Mexico","Punta Pericos",23.9,-109.8,"32% bleached","Bonilla, H.R. 2001. Effects of the 1997-1998 El Nino Southern Oscillation on coral communities of the Gulf of California, Mexico. Bulletin of Marine Science. 69(1):251-266","MEX","MEDIUM"
1998,"Mexico","Quintana Roo",19,-87.5717,NA,"Wilkinson, Clive","MEX","LOW"
1998,"Mexico","Quintana Roo",20.5,-87.05," Moderate bleaching","ReefBase","MEX","MEDIUM"
1997,"Mexico","Revilla Gigedo Islands",18,-111.5," There was 10-15% bleaching, with some mortality.","ReefBase","MEX","LOW"
1997,"Mexico","Revillagigedos",18.843,-111.0776,"10-15%","Wilkinson, Clive","MEX","LOW"
1997,"Mexico","San Carlos Bay",27.9,-111,"moderate","Bonilla, H.R. 2001. Effects of the 1997-1998 El Nino Southern Oscillation on coral communities of the Gulf of California, Mexico. Bulletin of Marine Science. 69(1):251-266","MEX","MEDIUM"
1997,"Mexico","San Gabriel Bay",24.5,-110.4,"34% bleached","Bonilla, H.R. 2001. Effects of the 1997-1998 El Nino Southern Oscillation on coral communities of the Gulf of California, Mexico. Bulletin of Marine Science. 69(1):251-266","MEX","MEDIUM"
1997,"Mexico","San Jose Island",24.9,-110.6,"1st noticed Aug in scleractinians between 0-10m. Oct 35% bleached","Bonilla, H.R. 2001. Effects of the 1997-1998 El Nino Southern Oscillation on coral communities of the Gulf of California, Mexico. Bulletin of Marine Science. 69(1):251-266","MEX","MEDIUM"
1998,"Mexico","Sian Ka'an Biosphere Reserve",19.5,-87.3,"95-100% bleaching","http://www.osdpd.noaa.gov/PSB/EPS/SST/climohot_1999.html","MEX","HIGH"
1998,"Mexico","Xcalak",18.2667,-87.8333,"95-100% bleaching","http://www.osdpd.noaa.gov/PSB/EPS/SST/climohot_1999.html","MEX","HIGH"
1990,"Mexico","Yal Ku",20.2666666666667,-87.2166666666667,"Coral mortality reported byd Spalding and Harcourt (1991). ","ReefBase","MEX","UNKNOWN"
1998,"Mexico","Yelapa, Bahia Banderas",20.52,-105.4,"54%","Carriquiry, J.D., Cupul-Magana, A.L., Rodriguez-Zaragoza, F. and Medina-Rosas, P. 2001. Coral Bleaching and Mortality in the Mexican Pacific during the 1997 - 198 El Nino and prediction from a remote sensing approach. Bull of Mar Sci. 69(1):237-249","MEX","HIGH"
1998,"Mexico","Yucatan",21.3257,-90.1559,NA,"Wilkinson, Clive","MEX","LOW"
1998,"Bahamas","AUTEC 2 (D18)",24.50643,-77.69697,NA,"Atlantic and Gulf Rapid Reef Assessment (AGRRA) Database (www.agrra.org). Batch: Bahamas-1998B","BHS","LOW"
1998,"Bahamas","AUTEC 2 South (D19)",24.48333,-77.6965,NA,"Atlantic and Gulf Rapid Reef Assessment (AGRRA) Database (www.agrra.org). Batch: Bahamas-1998B","BHS","LOW"
1998,"Bahamas","AUTEC 2 South (S16)",24.484,-77.699,NA,"Atlantic and Gulf Rapid Reef Assessment (AGRRA) Database (www.agrra.org). Batch: Bahamas-1998B","BHS","LOW"
1998,"Bahamas","AUTEC 3 (D21)",24.34315,-77.67068,NA,"Atlantic and Gulf Rapid Reef Assessment (AGRRA) Database (www.agrra.org). Batch: Bahamas-1998B","BHS","LOW"
1998,"Bahamas","AUTEC 3 (S19)",24.34315,-77.67068,NA,"Atlantic and Gulf Rapid Reef Assessment (AGRRA) Database (www.agrra.org). Batch: Bahamas-1998B","BHS","LOW"
1998,"Bahamas","Bahamas",25.1879,-77.0225,NA,"NOAA database","BHS","MEDIUM"
1998,"Bahamas","Bahamas",23.7413,-76.0054,"no-light bleaching","NOAA database","BHS","LOW"
1998,"Bahamas","Bahamas",24.3301,-74.4642,"Moderate bleaching","NOAA database","BHS","MEDIUM"
1998,"Bahamas","Big Wood (S18)",24.36703,-77.68235,NA,"Atlantic and Gulf Rapid Reef Assessment (AGRRA) Database (www.agrra.org). Batch: Bahamas-1998B","BHS","LOW"
1998,"Bahamas","Bristol Galley (D17)",24.52633,-77.68922,NA,"Atlantic and Gulf Rapid Reef Assessment (AGRRA) Database (www.agrra.org). Batch: Bahamas-1998B","BHS","LOW"
1998,"Bahamas","China Point (S10)",24.75133,-77.80767,NA,"Atlantic and Gulf Rapid Reef Assessment (AGRRA) Database (www.agrra.org). Batch: Bahamas-1998B","BHS","LOW"
1998,"Bahamas","Chubb Cay",25.414,-77.923,"60% (GCRMN 2000)","NOAA database","BHS","MEDIUM"
1994,"Bahamas","Conception Island",23.8333333333333,-75.1166666666667," Extent Unspecified","ReefBase","BHS","UNKNOWN"
1998,"Bahamas","Congo Town (D24)",24.30122,-77.64788,NA,"Atlantic and Gulf Rapid Reef Assessment (AGRRA) Database (www.agrra.org). Batch: Bahamas-1998B","BHS","LOW"
1998,"Bahamas","Congo Town (S23)",24.3013,-77.64788,NA,"Atlantic and Gulf Rapid Reef Assessment (AGRRA) Database (www.agrra.org). Batch: Bahamas-1998B","BHS","LOW"
1998,"Bahamas","Egg Island",25.5,-76.8,"60 % bleached. Up to 80% between 15-20m","GCRMN 2000. Chapter 1","BHS","HIGH"
1999,"Bahamas","Elbow Cay, Middle",26.54033,-76.94617,NA,"Atlantic and Gulf Rapid Reef Assessment (AGRRA) Database (www.agrra.org). Batch: Bahamas-1999","BHS","LOW"
1999,"Bahamas","Elbow Cay, North",26.05983,-76.9495,NA,"Atlantic and Gulf Rapid Reef Assessment (AGRRA) Database (www.agrra.org). Batch: Bahamas-1999","BHS","LOW"
1999,"Bahamas","Elbow Cay, South (Inner)",26.52677,-76.95695,NA,"Atlantic and Gulf Rapid Reef Assessment (AGRRA) Database (www.agrra.org). Batch: Bahamas-1999","BHS","LOW"
1999,"Bahamas","Elbow Cay, South (Outer)",26.53228,-76.95039,NA,"Atlantic and Gulf Rapid Reef Assessment (AGRRA) Database (www.agrra.org). Batch: Bahamas-1999","BHS","LOW"
1999,"Bahamas","Fowl Cay, Fore Reef",26.63715,-77.0385,NA,"Atlantic and Gulf Rapid Reef Assessment (AGRRA) Database (www.agrra.org). Batch: Bahamas-1999","BHS","LOW"
1999,"Bahamas","Fowl Cay, Pinnacles",26.64,-77.03933,NA,"Atlantic and Gulf Rapid Reef Assessment (AGRRA) Database (www.agrra.org). Batch: Bahamas-1999","BHS","LOW"
1998,"Bahamas","French Bay #1",23.95,-74.54,NA,"Atlantic and Gulf Rapid Reef Assessment (AGRRA) Database (www.agrra.org). Batch: Bahamas-1998A","BHS","UNKNOWN"
1998,"Bahamas","French Bay #2",23.95,-74.55,NA,"Atlantic and Gulf Rapid Reef Assessment (AGRRA) Database (www.agrra.org). Batch: Bahamas-1998A","BHS","UNKNOWN"
1998,"Bahamas","Gaulin's Forereef #1",24.16,-74.46,NA,"Atlantic and Gulf Rapid Reef Assessment (AGRRA) Database (www.agrra.org). Batch: Bahamas-1998A","BHS","LOW"
1998,"Bahamas","Gaulin's Forereef #2",24.17,-74.48,NA,"Atlantic and Gulf Rapid Reef Assessment (AGRRA) Database (www.agrra.org). Batch: Bahamas-1998A","BHS","LOW"
1998,"Bahamas","Gaulin's Forereef #3",24.14,-74.45,NA,"Atlantic and Gulf Rapid Reef Assessment (AGRRA) Database (www.agrra.org). Batch: Bahamas-1998A","BHS","LOW"
1998,"Bahamas","Gaulin's Reef A, backreef",24.15,-74.47,NA,"Atlantic and Gulf Rapid Reef Assessment (AGRRA) Database (www.agrra.org). Batch: Bahamas-1998A","BHS","LOW"
1998,"Bahamas","Gaulin's Reef B, backreef",24.16,-74.48,NA,"Atlantic and Gulf Rapid Reef Assessment (AGRRA) Database (www.agrra.org). Batch: Bahamas-1998A","BHS","LOW"
1998,"Bahamas","Gaulin's Reef C, backreef",24.14,-74.46,NA,"Atlantic and Gulf Rapid Reef Assessment (AGRRA) Database (www.agrra.org). Batch: Bahamas-1998A","BHS","UNKNOWN"
1998,"Bahamas","Green Cay (D15)",24.59583,-77.69333,NA,"Atlantic and Gulf Rapid Reef Assessment (AGRRA) Database (www.agrra.org). Batch: Bahamas-1998B","BHS","LOW"
1998,"Bahamas","High Point Cay (D27)",24.34315,-77.67068,NA,"Atlantic and Gulf Rapid Reef Assessment (AGRRA) Database (www.agrra.org). Batch: Bahamas-1998B","BHS","LOW"
1999,"Bahamas","Lee Stocking Island",24.4994,-76.7142,"substantial bleaching on fore and back reefs","http://www.osdpd.noaa.gov/PSB/EPS/SST/climohot_1999.html","BHS","MEDIUM"
1998,"Bahamas","Lee Stocking Island",24.4994,-76.7142,NA,"NOAA database","BHS","MEDIUM"
1998,"Bahamas","Lindsay Reef",24.01,-74.53,NA,"Atlantic and Gulf Rapid Reef Assessment (AGRRA) Database (www.agrra.org). Batch: Bahamas-1998A","BHS","UNKNOWN"
1998,"Bahamas","Little Inagua",21.5544,-72.9692,"60% (GCRMN 2000)","Wilkinson, Clive","BHS","HIGH"
1998,"Bahamas","Little San Salvador",24.566,-75.933,"60 % bleached. Up to 80% between 15-20m","GCRMN 2000. Chapter 1","BHS","HIGH"
1998,"Bahamas","Little San Salvador ( Little Island )",24.566,-75.9333333333333,"Extent Unspecified","ReefBase old database
(Williams, E.H. Jr. and L. Bunkley- Williams, The world wide coral reef bleaching cycle and related sources of coral mortality., Atoll Res. Bull. 335:1-71.)","BHS","UNKNOWN"
1998,"Bahamas","Long Bay Cay (D25)",24.09972,-77.53335,NA,"Atlantic and Gulf Rapid Reef Assessment (AGRRA) Database (www.agrra.org). Batch: Bahamas-1998B","BHS","LOW"
1998,"Bahamas","Long Bay Cay (S24)",24.09793,-77.53703,NA,"Atlantic and Gulf Rapid Reef Assessment (AGRRA) Database (www.agrra.org). Batch: Bahamas-1998B","BHS","HIGH"
1998,"Bahamas","Long Rock (D13)",24.626,-77.691,NA,"Atlantic and Gulf Rapid Reef Assessment (AGRRA) Database (www.agrra.org). Batch: Bahamas-1998B","BHS","LOW"
1999,"Bahamas","Lynyard Cay, North",26.3575,-76.97683,NA,"Atlantic and Gulf Rapid Reef Assessment (AGRRA) Database (www.agrra.org). Batch: Bahamas-1999","BHS","LOW"
1999,"Bahamas","Lynyard Cay, South",26.3535,-76.978,NA,"Atlantic and Gulf Rapid Reef Assessment (AGRRA) Database (www.agrra.org). Batch: Bahamas-1999","BHS","LOW"
1998,"Bahamas","Mahore (S5)",25.06367,-77.93783,NA,"Atlantic and Gulf Rapid Reef Assessment (AGRRA) Database (www.agrra.org). Batch: Bahamas-1998B","BHS","LOW"
1999,"Bahamas","Man O' War Cay, N. of S. Channel",26.60333,-76.98317,NA,"Atlantic and Gulf Rapid Reef Assessment (AGRRA) Database (www.agrra.org). Batch: Bahamas-1999","BHS","LOW"
1999,"Bahamas","Man O' War Cay, S. of S. Channel",26.59725,-76.97639,NA,"Atlantic and Gulf Rapid Reef Assessment (AGRRA) Database (www.agrra.org). Batch: Bahamas-1999","BHS","LOW"
1998,"Bahamas","Mangrove Central (S21)",24.29167,-77.6462,NA,"Atlantic and Gulf Rapid Reef Assessment (AGRRA) Database (www.agrra.org). Batch: Bahamas-1998B","BHS","LOW"
1998,"Bahamas","Mangrove South (S22)",24.25315,-77.62917,NA,"Atlantic and Gulf Rapid Reef Assessment (AGRRA) Database (www.agrra.org). Batch: Bahamas-1998B","BHS","LOW"
1998,"Bahamas","Middle Bight (D22)",24.30112,-77.65295,NA,"Atlantic and Gulf Rapid Reef Assessment (AGRRA) Database (www.agrra.org). Batch: Bahamas-1998B","BHS","LOW"
1998,"Bahamas","Middle Bight (S20)",24.3069,-77.65638,NA,"Atlantic and Gulf Rapid Reef Assessment (AGRRA) Database (www.agrra.org). Batch: Bahamas-1998B","BHS","LOW"
1998,"Bahamas","New Providence",25.0881,-77.473," There was bleaching of over 60% of all head corals at 20 m, and 80% bleaching between 12-20 m depth.","ReefBase old database
(Wilkinson, C. (Compiler), The 1997-1998 mass bleaching event around the world,, p.15-38. In: C.R. Wilkinson (ed.) Status of coral reefs of the world: 1998. Australian Institue of Marine Science, Townsville, 184 p.)","BHS","HIGH"
1998,"Bahamas","New Providence Island",25.0881,-77.4737,"60% bleached","Wilkinson, Clive. http://coral.aoml.noaa.gov/bulls/clive-bleaching.html","BHS","HIGH"
1998,"Bahamas","North Bight (D20)",24.43925,-77.69617,NA,"Atlantic and Gulf Rapid Reef Assessment (AGRRA) Database (www.agrra.org). Batch: Bahamas-1998B","BHS","LOW"
1998,"Bahamas","North Bight (S17)",24.4395,-77.69807,NA,"Atlantic and Gulf Rapid Reef Assessment (AGRRA) Database (www.agrra.org). Batch: Bahamas-1998B","BHS","LOW"
1998,"Bahamas","North Love Hill (S8)",24.77435,-77.80772,NA,"Atlantic and Gulf Rapid Reef Assessment (AGRRA) Database (www.agrra.org). Batch: Bahamas-1998B","BHS","LOW"
1998,"Bahamas","North Mangrove (D23)",24.30112,-77.6478,NA,"Atlantic and Gulf Rapid Reef Assessment (AGRRA) Database (www.agrra.org). Batch: Bahamas-1998B","BHS","LOW"
1992,"Bahamas","Northern Norman's Pond Cay",24.65,-76.805,"August and Dec 1992, 8% of M. annularis bleached.","Anthony, S. L., 1997.  Scleractinian coral mortality and color change on central Bahamian reefs: 1991-1995. Master's Thesis: University of Texas, Austin. 93 p.","BHS","LOW"
1993,"Bahamas","Northern Norman's Pond Cay",24.65,-76.805,"April and June 1993, 8% of M. annularis bleached. In August 1993, 32% M. annularis bleached and in Nov 1993, 58% M. annularis bleached.
In June 1993, 14% of Porites asteroides bleached, 20% bleaching in August and 32% bleaching in Nov 1993 for same species.","Anthony, S. L., 1997.  Scleractinian coral mortality and color change on central Bahamian reefs: 1991-1995. Master's Thesis: University of Texas, Austin. 93 p.","BHS","MEDIUM"
1994,"Bahamas","Northern Norman's Pond Cay",24.65,-76.805,"In March 1994, 8% of M. annularis bleached.","Anthony, S. L., 1997.  Scleractinian coral mortality and color change on central Bahamian reefs: 1991-1995. Master's Thesis: University of Texas, Austin. 93 p.","BHS","LOW"
1991,"Bahamas","Northern North Perry",23.796,-76.137,"In August 1991, 10% of M. annularis bleached.
47% of Porites asteroides bleachedin August 1991 and 67% of Porites asteroides bleached in October 1991.","Anthony, S. L., 1997.  Scleractinian coral mortality and color change on central Bahamian reefs: 1991-1995. Master's Thesis: University of Texas, Austin. 93 p.","BHS","LOW"
1992,"Bahamas","Northern North Perry",23.796,-76.137,"15% of Porites asteroides bleached in March 1992 and 16% of Porites asteroides and 8% of Montastraea cf. annularis bleached in November 1992.","Anthony, S. L., 1997.  Scleractinian coral mortality and color change on central Bahamian reefs: 1991-1995. Master's Thesis: University of Texas, Austin. 93 p.","BHS","LOW"
1993,"Bahamas","Northern North Perry",23.796,-76.137,"8% of Montastraea cf. annularis bleached in April and August 1993 and 38% in November.
13% of Porites asteroides bleached in June 1993, 38% bleached in August and 58% in November 1993.","Anthony, S. L., 1997.  Scleractinian coral mortality and color change on central Bahamian reefs: 1991-1995. Master's Thesis: University of Texas, Austin. 93 p.","BHS","LOW"
1994,"Bahamas","Northern North Perry",23.796,-76.137,"6% of Porites asteroides bleached in March and August 1994 and 20% bleached in October.
8% of Montastraea cf. annularis bleached in Dec 1994.","Anthony, S. L., 1997.  Scleractinian coral mortality and color change on central Bahamian reefs: 1991-1995. Master's Thesis: University of Texas, Austin. 93 p.","BHS","LOW"
1995,"Bahamas","Northern North Perry",23.796,-76.137,"34% of Porites asteroides bleached in April 1995, 48% in August and 60% in October.
15% of Montastraea cf. annularis bleached in Feb 1995 and 55% bleached in October 1995.","Anthony, S. L., 1997.  Scleractinian coral mortality and color change on central Bahamian reefs: 1991-1995. Master's Thesis: University of Texas, Austin. 93 p.","BHS","MEDIUM"
1998,"Bahamas","Oasis (D26)",23.9476,-77.38665,NA,"Atlantic and Gulf Rapid Reef Assessment (AGRRA) Database (www.agrra.org). Batch: Bahamas-1998B","BHS","LOW"
1990,"Bahamas","Rainbow Garden (on the bank), Perry Reef (shallow fringing reef, 20 m), and Adderley Dropoff (shelf-edge reef, 33 m), Lee Stocking Island",23.742,-76.051,"Widespread bleaching observed in mid-August 1990 at 20-25 m on the shelf-edge fringing reef and involved 1-2% of the reef . By mid-September bleaching was observed in a depth range of 2-46 m . Bleaching at 20 m consisted of about 25% of the reef. Bleached organisms included stony coral, gorgonians, and sponges. Bleaching continued to increase in number of colonies affected through the first week of October.  One loggerhead sponge (Spheciospongia vesparia) at 35 m, reduced in size through tissue loss in 1987, bleached again in 1990 . No further bleaching was observed in 1991 or 1992.
Type of organism affected:
Porifera (sponge) Aplysina spp . Spheciospongia vesparia Xestospongia muta;: Hydrozoa (fire coral) Millepora alcicornis; 
Scleractinia (hard coral) Acropora cervicornis Agaricia agaricites Diploria strigosa Montastrea annularis Montastrea cavernosa Porites porites; Gorgonacea (soft coral) several unidentified species.

Coral bleaching occurred at Lee Stocking Island following a short period (18 days) of daily average water temperatures above 30 .5`C on the bank in July-August 1990 followed by another temperature peak in mid-September. A maximum temperature of 32.5C was reached on 23 September 1990 . The July monthly average for 1990 did not differ from surrounding years, but August and September were significantly wanner in 1990. The 5-yr record at the LSI dock distinctly shows a longer-term maxima in 1990.","Dennis, G. D. and R.I. Wicklund., 1990.  The relationship between environmental factors and coral bleaching at Lee Stocking Island, Bahamas in 1990. Unpublished Report, Caribbean Marine Research Center, Florida, USA.","BHS","LOW"
1998,"Bahamas","Red Rock (S11)",24.72917,-77.77017,NA,"Atlantic and Gulf Rapid Reef Assessment (AGRRA) Database (www.agrra.org). Batch: Bahamas-1998B","BHS","LOW"
1998,"Bahamas","Samana Cay",23.1273,-73.75,NA,"NOAA database","BHS","LOW"
1998,"Bahamas","San Salvador",23.9994,-74.5575,"Moderate bleaching","NOAA database","BHS","MEDIUM"
1998,"Bahamas","San Salvador",24,-74.6,NA,"Wilkinson, Clive","BHS","HIGH"
1999,"Bahamas","Sandy Cay, Back Reef",26.39778,-76.98846,NA,"Atlantic and Gulf Rapid Reef Assessment (AGRRA) Database (www.agrra.org). Batch: Bahamas-1999","BHS","LOW"
1999,"Bahamas","Sandy Cay, Seaward",26.39783,-76.9885,NA,"Atlantic and Gulf Rapid Reef Assessment (AGRRA) Database (www.agrra.org). Batch: Bahamas-1999","BHS","LOW"
1998,"Bahamas","Snapshot Reef",24.04,-74.54,NA,"Atlantic and Gulf Rapid Reef Assessment (AGRRA) Database (www.agrra.org). Batch: Bahamas-1998A","BHS","LOW"
1998,"Bahamas","Snapshot Reef",24.04,-74.54,NA,"Atlantic and Gulf Rapid Reef Assessment (AGRRA) Database (www.agrra.org). Batch: Bahamas-1998A","BHS","LOW"
1998,"Bahamas","South Staniard 2 (D7)",24.84383,-77.85733,NA,"Atlantic and Gulf Rapid Reef Assessment (AGRRA) Database (www.agrra.org). Batch: Bahamas-1998B","BHS","LOW"
1998,"Bahamas","South Staniard 2 (S7)",24.84493,-77.86098,NA,"Atlantic and Gulf Rapid Reef Assessment (AGRRA) Database (www.agrra.org). Batch: Bahamas-1998B","BHS","LOW"
1993,"Bahamas","Southern Norman's Pond Cay",24.592,-76.806,"June 1993, 8% of M. annularis bleached, August 22% and 30% in November 1993. 8% of Porites asteroides bleached in November 1994.","Anthony, S. L., 1997.  Scleractinian coral mortality and color change on central Bahamian reefs: 1991-1995. Master's Thesis: University of Texas, Austin. 93 p.","BHS","LOW"
1995,"Bahamas","Southern Norman's Pond Cay",24.592,-76.806,"August 1995, 8% of M. annularis bleached and in October 1995, 60% of M annularis bleached.  
8% of Porites asteroides bleached in October 1995","Anthony, S. L., 1997.  Scleractinian coral mortality and color change on central Bahamian reefs: 1991-1995. Master's Thesis: University of Texas, Austin. 93 p.","BHS","MEDIUM"
1991,"Bahamas","Southern North Perry",23.764,-76.12,"30% of Porites asteroides bleached in April 1991and 80% in October.
30% of Montastraea cf. annularis bleached in August and 15% in October","Anthony, S. L., 1997.  Scleractinian coral mortality and color change on central Bahamian reefs: 1991-1995. Master's Thesis: University of Texas, Austin. 93 p.","BHS","LOW"
1992,"Bahamas","Southern North Perry",23.764,-76.12,"8% of Montastraea cf. annularis bleached in November 1992","Anthony, S. L., 1997.  Scleractinian coral mortality and color change on central Bahamian reefs: 1991-1995. Master's Thesis: University of Texas, Austin. 93 p.","BHS","LOW"
1993,"Bahamas","Southern North Perry",23.764,-76.12,"12% of Porites asteroides bleached in June 1993, 48% April 1991and 82% in November.
8% of Montastraea cf. annularis bleached in August and 57% in November","Anthony, S. L., 1997.  Scleractinian coral mortality and color change on central Bahamian reefs: 1991-1995. Master's Thesis: University of Texas, Austin. 93 p.","BHS","LOW"
1994,"Bahamas","Southern North Perry",23.764,-76.12,"19% of Porites asteroides bleached in October 1994.","Anthony, S. L., 1997.  Scleractinian coral mortality and color change on central Bahamian reefs: 1991-1995. Master's Thesis: University of Texas, Austin. 93 p.","BHS","LOW"
1995,"Bahamas","Southern North Perry",23.764,-76.12,"20% of Porites asteroides bleached in June 1995, 24%  in August and 88% in October 1995
82% of Montastraea cf. annularis bleached in October 1995","Anthony, S. L., 1997.  Scleractinian coral mortality and color change on central Bahamian reefs: 1991-1995. Master's Thesis: University of Texas, Austin. 93 p.","BHS","MEDIUM"
1999,"Bahamas","Storr's Reef",26.5775,-76.959,NA,"Atlantic and Gulf Rapid Reef Assessment (AGRRA) Database (www.agrra.org). Batch: Bahamas-1999","BHS","LOW"
1998,"Bahamas","Sugar Rock (D16)",24.54022,-77.68207,NA,"Atlantic and Gulf Rapid Reef Assessment (AGRRA) Database (www.agrra.org). Batch: Bahamas-1998B","BHS","LOW"
1998,"Bahamas","Sugar Rock (S15)",24.5448,-77.68372,NA,"Atlantic and Gulf Rapid Reef Assessment (AGRRA) Database (www.agrra.org). Batch: Bahamas-1998B","BHS","LOW"
1998,"Bahamas","Sweetings Cay",26.5914,-77.9041,"60% (GCRMN 2000)","NOAA database","BHS","MEDIUM"
1998,"Bahamas","Telephone Pole Reef",24.03,-74.54,NA,"Atlantic and Gulf Rapid Reef Assessment (AGRRA) Database (www.agrra.org). Batch: Bahamas-1998A","BHS","LOW"
1998,"Bahamas","Walker Cay",27.2616,-78.3844,"60% (GCRMN 2000)","Wilkinson, Clive","BHS","HIGH"
1998,"Bahamas","Walker's Cay",27.2649,-78.4,"great amount of coral that was bleached white, including many different types of coral","Coral Listserver","BHS","HIGH"
1998,"Bahamas","West Klein (D10)",24.745,-77.78467,NA,"Atlantic and Gulf Rapid Reef Assessment (AGRRA) Database (www.agrra.org). Batch: Bahamas-1998B","BHS","LOW"
1998,"Bermuda","Bermuda",32.4254,-64.8485,"no bleaching","NOAA database","BMU","NONE"
1998,"Bermuda","Bermuda",32.3166,-64.7933,NA,"Wilkinson, Clive","BMU","LOW"
1998,"Bermuda","Bermuda",32.3,-64.75," ","ReefBase","BMU","HIGH"
1991,"Bermuda","Bermuda",32.3,-64.75,"24 July 1991: 22.6% of 53 colonies bleached; T=27.8º C; 6 August 1991, 47.3% of 87 colonies bleached, T= 29.4ºC; 21 October 1991, 13.6% of 83 colonies bleached, T=26.7º. ","ReefBase","BMU","UNKNOWN"
1997,"Bermuda","Bermuda",32.3,-64.75," There was 2-3% bleaching of the 25% coral cover at 8m on rim reefs, and 5-10% bleaching of 40% coral cover at 15m on offshore terrace reefs. It was higher on lagoon reefs (2-6m depth) at about 10-15% bleaching of the 15-20% coral cover.","ReefBase","BMU","LOW"
1998,"Cayman Islands","Cayman Islands",19.5333333333333,-80.6666666666667,"The reefs differ between Little and Grand Cayman. Overall, coral diversity and cover was high at the intermediate depths surveyed, but low at shallow depths. On Little Cayman average coral cover was higher and colonies were bigger, but there was also high","ReefBase","CYM","UNKNOWN"
1998,"Cayman Islands","Grand Cayman",19.3166666666667,-81.2333333333333," Bleaching affected all species and possibly 90% of all corals were heavily bleached.","ReefBase","CYM","HIGH"
1999,"Cayman Islands","Grand Cayman: Babylon (GC23)",19.35333,-81.16403,NA,"Atlantic and Gulf Rapid Reef Assessment (AGRRA) Database (www.agrra.org). Batch: Cayman-1999","CYM","LOW"
1999,"Cayman Islands","Grand Cayman: Bear's Paw (GC27)",19.39757,-81.36028,NA,"Atlantic and Gulf Rapid Reef Assessment (AGRRA) Database (www.agrra.org). Batch: Cayman-1999","CYM","LOW"
1999,"Cayman Islands","Grand Cayman: Breakers (GC30)",19.29178,-81.20115,NA,"Atlantic and Gulf Rapid Reef Assessment (AGRRA) Database (www.agrra.org). Batch: Cayman-1999","CYM","UNKNOWN"
1999,"Cayman Islands","Grand Cayman: Casey's Reef (GC26)",19.35337,-81.19577,NA,"Atlantic and Gulf Rapid Reef Assessment (AGRRA) Database (www.agrra.org). Batch: Cayman-1999","CYM","LOW"
1999,"Cayman Islands","Grand Cayman: Cemetery Reef (GC32)",19.36528,-81.39543,NA,"Atlantic and Gulf Rapid Reef Assessment (AGRRA) Database (www.agrra.org). Batch: Cayman-1999","CYM","UNKNOWN"
1999,"Cayman Islands","Grand Cayman: Deila's Delight (GC24)",19.35863,-81.24668,NA,"Atlantic and Gulf Rapid Reef Assessment (AGRRA) Database (www.agrra.org). Batch: Cayman-1999","CYM","LOW"
1999,"Cayman Islands","Grand Cayman: East End Reef (GC19)",19.31763,-81.07473,NA,"Atlantic and Gulf Rapid Reef Assessment (AGRRA) Database (www.agrra.org). Batch: Cayman-1999","CYM","UNKNOWN"
1999,"Cayman Islands","Grand Cayman: Hepp's Mini Wall (GC28)",19.38543,-81.41653,NA,"Atlantic and Gulf Rapid Reef Assessment (AGRRA) Database (www.agrra.org). Batch: Cayman-1999","CYM","LOW"
1999,"Cayman Islands","Grand Cayman: Isabel's Reef (GC22)",19.35767,-81.13575,NA,"Atlantic and Gulf Rapid Reef Assessment (AGRRA) Database (www.agrra.org). Batch: Cayman-1999","CYM","LOW"
1999,"Cayman Islands","Grand Cayman: Kaho's Reef (GC20)",19.33337,-81.0766,NA,"Atlantic and Gulf Rapid Reef Assessment (AGRRA) Database (www.agrra.org). Batch: Cayman-1999","CYM","LOW"
1999,"Cayman Islands","Grand Cayman: Kelly's Caverns (GC29)",19.29127,-81.1462,NA,"Atlantic and Gulf Rapid Reef Assessment (AGRRA) Database (www.agrra.org). Batch: Cayman-1999","CYM","LOW"
1999,"Cayman Islands","Grand Cayman: Playing Field (GC31)",19.29275,-81.1053,NA,"Atlantic and Gulf Rapid Reef Assessment (AGRRA) Database (www.agrra.org). Batch: Cayman-1999","CYM","UNKNOWN"
1999,"Cayman Islands","Grand Cayman: Queen's Throne (GC25)",19.3803,-81.29155,NA,"Atlantic and Gulf Rapid Reef Assessment (AGRRA) Database (www.agrra.org). Batch: Cayman-1999","CYM","UNKNOWN"
1999,"Cayman Islands","Grand Cayman: Snapper Hole (GC21)",19.3439,-81.07793,NA,"Atlantic and Gulf Rapid Reef Assessment (AGRRA) Database (www.agrra.org). Batch: Cayman-1999","CYM","LOW"
1999,"Cayman Islands","Grand Cayman: Sunset House (GC33)",19.2862,-81.39105,NA,"Atlantic and Gulf Rapid Reef Assessment (AGRRA) Database (www.agrra.org). Batch: Cayman-1999","CYM","LOW"
1998,"Cayman Islands","Little Cayman",19.7231,-80.0463,"Acropora, montastrea, millepora","NOAA database","CYM","MEDIUM"
1999,"Cayman Islands","Little Cayman: Berges Meredith Anchor (LC17)",19.70783,-80.00825,NA,"Atlantic and Gulf Rapid Reef Assessment (AGRRA) Database (www.agrra.org). Batch: Cayman-1999","CYM","UNKNOWN"
1999,"Cayman Islands","Little Cayman: Black Tip Tunnels (LC6)",19.71412,-79.95783,NA,"Atlantic and Gulf Rapid Reef Assessment (AGRRA) Database (www.agrra.org). Batch: Cayman-1999","CYM","LOW"
1999,"Cayman Islands","Little Cayman: Charles Bay (LC4)",19.6938,-79.97432,NA,"Atlantic and Gulf Rapid Reef Assessment (AGRRA) Database (www.agrra.org). Batch: Cayman-1999","CYM","LOW"
1999,"Cayman Islands","Little Cayman: Disneyland (LC3)",19.83052,-80.0229,NA,"Atlantic and Gulf Rapid Reef Assessment (AGRRA) Database (www.agrra.org). Batch: Cayman-1999","CYM","UNKNOWN"
1999,"Cayman Islands","Little Cayman: Grundy's Gardens (LC1)",19.65702,-80.08868,NA,"Atlantic and Gulf Rapid Reef Assessment (AGRRA) Database (www.agrra.org). Batch: Cayman-1999","CYM","LOW"
1999,"Cayman Islands","Little Cayman: Jigsaw Puzzle (LC2)",19.66638,-80.1065,NA,"Atlantic and Gulf Rapid Reef Assessment (AGRRA) Database (www.agrra.org). Batch: Cayman-1999","CYM","UNKNOWN"
1999,"Cayman Islands","Little Cayman: Joy's Joy (LC10)",19.67817,-80.09292,NA,"Atlantic and Gulf Rapid Reef Assessment (AGRRA) Database (www.agrra.org). Batch: Cayman-1999","CYM","LOW"
1999,"Cayman Islands","Little Cayman: Lighthouse (LC16)",19.6617,-80.11214,NA,"Atlantic and Gulf Rapid Reef Assessment (AGRRA) Database (www.agrra.org). Batch: Cayman-1999","CYM","LOW"
1999,"Cayman Islands","Little Cayman: Lucas's Ledge (LC14)",19.66925,-80.04325,NA,"Atlantic and Gulf Rapid Reef Assessment (AGRRA) Database (www.agrra.org). Batch: Cayman-1999","CYM","UNKNOWN"
1999,"Cayman Islands","Little Cayman: Main Channel-East Side (LC11)",19.65687,-80.0728,NA,"Atlantic and Gulf Rapid Reef Assessment (AGRRA) Database (www.agrra.org). Batch: Cayman-1999","CYM","UNKNOWN"
1999,"Cayman Islands","Little Cayman: Meadows (LC8)",19.69183,-80.06883,NA,"Atlantic and Gulf Rapid Reef Assessment (AGRRA) Database (www.agrra.org). Batch: Cayman-1999","CYM","LOW"
1999,"Cayman Islands","Little Cayman: Mixing Bowl-Three Fathom Wall (LC5)",19.68493,-80.07833,NA,"Atlantic and Gulf Rapid Reef Assessment (AGRRA) Database (www.agrra.org). Batch: Cayman-1999","CYM","LOW"
1999,"Cayman Islands","Little Cayman: Nancy's Cup of Tea (LC9)",19.69398,-80.06895,NA,"Atlantic and Gulf Rapid Reef Assessment (AGRRA) Database (www.agrra.org). Batch: Cayman-1999","CYM","LOW"
1999,"Cayman Islands","Little Cayman: No Name (LC15)",19.67713,-80.02603,NA,"Atlantic and Gulf Rapid Reef Assessment (AGRRA) Database (www.agrra.org). Batch: Cayman-1999","CYM","LOW"
1999,"Cayman Islands","Little Cayman: Paul's Anchor (LC12)",19.69435,-80.06969,NA,"Atlantic and Gulf Rapid Reef Assessment (AGRRA) Database (www.agrra.org). Batch: Cayman-1999","CYM","LOW"
1999,"Cayman Islands","Little Cayman: Penguin's Leap (LC7)",19.70918,-80.00812,NA,"Atlantic and Gulf Rapid Reef Assessment (AGRRA) Database (www.agrra.org). Batch: Cayman-1999","CYM","LOW"
1999,"Cayman Islands","Little Cayman: Rock Bottom Wall (LC13)",19.70095,-80.05701,NA,"Atlantic and Gulf Rapid Reef Assessment (AGRRA) Database (www.agrra.org). Batch: Cayman-1999","CYM","LOW"
1999,"Cayman Islands","Little Cayman: Wreck Anchor (CL18)",19.7166,-79.98202,NA,"Atlantic and Gulf Rapid Reef Assessment (AGRRA) Database (www.agrra.org). Batch: Cayman-1999","CYM","LOW"
1998,"Cayman Islands","North side Grand Cayman",19.355,-81.1532,"90% bleached is noticed  11/20/97 (source b971120.dat) as 50-60%","Wilkinson, Clive","CYM","HIGH"
1998,"Cayman Islands","Queen's Pinnacle",19.3795,-81.2953,"30","Reef Check Data 2081","CYM","MEDIUM"
1998,"Cayman Islands","Queen's Pinnacle",19.38,-81.29,"0","Reef Check Data 2074","CYM","NONE"
1997,"Cayman Islands","West side Grand Cayman",19.3558,-81.3997,"no bleaching","Coral Listserver","CYM","NONE"
1998,"Cuba","Cuba",22,-79," Extent Unspecified","ReefBase","CUB","UNKNOWN"
1998,"Cuba","Cuba",22,-79,"Bleaching was seen in places where it was rare or never seen before (Pedro Alcolado, Judy Lang, Alan Logan, Peter Sale). ","ReefBase","CUB","HIGH"
1998,"Cuba","Levisa ( Cayo Levisa )",22.8833333333333,-83.5666666666667,"Bleaching evident on Diploria clivosa. ","ReefBase","CUB","UNKNOWN"
1998,"Cuba","Moal Boal",22,-78,NA,"NOAA database","CUB","LOW"
1998,"Cuba","Paraiso (Cayo Paraiso )",22.9166666666667,-83.475,"Non-specific whitening observed associated with disease. ","ReefBase","CUB","UNKNOWN"
1998,"Cuba","Santiago",19.9734,-76.1308,NA,"Wilkinson, Clive","CUB","LOW"
1998,"Cuba","south coast Cuba",21.329,-79.5761,"no bleaching","Wilkinson, Clive. http://coral.aoml.noaa.gov/bulls/clive-bleaching.html","CUB","NONE"
1998,"Cuba","Varadero",22.1,-81.195,NA,"Wilkinson, Clive","CUB","HIGH"
1998,"Haiti","Haiti",18.9211,-72.6752,NA,"Wilkinson, Clive","HTI","HIGH"
1998,"Jamaica","Discovery Bay",18.45,-77.3166666666667," ","ReefBase","JAM","HIGH"
1998,"Jamaica","Jamaica",18.2,-77.25," Extent Unspecified","ReefBase","JAM","UNKNOWN"
1998,"Jamaica","Jamaica",17.7848,-77.5627,"Moderate bleaching","NOAA database","JAM","MEDIUM"
1998,"Jamaica","Jamaica, Discovery Bay",18.4794,-77.3287,NA,"NOAA database","JAM","LOW"
1998,"Jamaica","Little Bloody Bay",18.3527,-78.3486,"0","Reef Check Data 2088","JAM","NONE"
1998,"Jamaica","Portland Bight, Jamaica",17.7777,-77.0837,NA,"Wilkinson, Clive","JAM","MEDIUM"
1999,"Turks and Caicos Islands","Caicos Bank: TC13-The Arch",21.48327,-71.5177,NA,"Atlantic and Gulf Rapid Reef Assessment (AGRRA) Database (www.agrra.org). Batch: TurksCaicos-1999","TCA","UNKNOWN"
1999,"Turks and Caicos Islands","Caicos Bank: TC14-Airplane",21.54603,-71.4558,NA,"Atlantic and Gulf Rapid Reef Assessment (AGRRA) Database (www.agrra.org). Batch: TurksCaicos-1999","TCA","UNKNOWN"
1999,"Turks and Caicos Islands","Caicos Bank: TC15-Ambergris 1",21.3,-71.6,NA,"Atlantic and Gulf Rapid Reef Assessment (AGRRA) Database (www.agrra.org). Batch: TurksCaicos-1999","TCA","UNKNOWN"
1999,"Turks and Caicos Islands","Caicos Bank: TC16-Ambergris 2",21.37265,-71.59915,NA,"Atlantic and Gulf Rapid Reef Assessment (AGRRA) Database (www.agrra.org). Batch: TurksCaicos-1999","TCA","UNKNOWN"
1999,"Turks and Caicos Islands","Caicos Bank: TC17-(No Name)",21.46715,-71.55209,NA,"Atlantic and Gulf Rapid Reef Assessment (AGRRA) Database (www.agrra.org). Batch: TurksCaicos-1999","TCA","UNKNOWN"
1999,"Turks and Caicos Islands","Caicos Bank: TC18-Fish Hole",21.48453,-71.51048,NA,"Atlantic and Gulf Rapid Reef Assessment (AGRRA) Database (www.agrra.org). Batch: TurksCaicos-1999","TCA","UNKNOWN"
1999,"Turks and Caicos Islands","Caicos Bank: TC19-French Cay",21.48928,-72.22427,NA,"Atlantic and Gulf Rapid Reef Assessment (AGRRA) Database (www.agrra.org). Batch: TurksCaicos-1999","TCA","LOW"
1999,"Turks and Caicos Islands","Caicos Bank: TC20-West Sand Spit",21.38808,-72.14395,NA,"Atlantic and Gulf Rapid Reef Assessment (AGRRA) Database (www.agrra.org). Batch: TurksCaicos-1999","TCA","UNKNOWN"
1999,"Turks and Caicos Islands","Caicos Bank: TC21-Spanish Anchor (W. Caicos Wall)",21.64565,-72.47455,NA,"Atlantic and Gulf Rapid Reef Assessment (AGRRA) Database (www.agrra.org). Batch: TurksCaicos-1999","TCA","LOW"
1999,"Turks and Caicos Islands","Caicos Bank: TC22-W. Caicos Wall-middle",21.66483,-72.47018,NA,"Atlantic and Gulf Rapid Reef Assessment (AGRRA) Database (www.agrra.org). Batch: TurksCaicos-1999","TCA","UNKNOWN"
1999,"Turks and Caicos Islands","Caicos Bank: TC23-The Pinnacles (Grace Bay)",21.81402,-72.18698,NA,"Atlantic and Gulf Rapid Reef Assessment (AGRRA) Database (www.agrra.org). Batch: TurksCaicos-1999","TCA","LOW"
1999,"Turks and Caicos Islands","Caicos Bank: TC24-Coral Gables (N. side of Provo)",21.818,-72.1835,NA,"Atlantic and Gulf Rapid Reef Assessment (AGRRA) Database (www.agrra.org). Batch: TurksCaicos-1999","TCA","LOW"
1999,"Turks and Caicos Islands","Caicos Bank: TC25-Grace Bay",21.83015,-72.17325,NA,"Atlantic and Gulf Rapid Reef Assessment (AGRRA) Database (www.agrra.org). Batch: TurksCaicos-1999","TCA","LOW"
1999,"Turks and Caicos Islands","Caicos Bank: TC26-Football Field",21.90635,-72.11526,NA,"Atlantic and Gulf Rapid Reef Assessment (AGRRA) Database (www.agrra.org). Batch: TurksCaicos-1999","TCA","UNKNOWN"
1999,"Turks and Caicos Islands","Caicos Bank: TC27-Grouper Hole",21.88333,-72.11667,NA,"Atlantic and Gulf Rapid Reef Assessment (AGRRA) Database (www.agrra.org). Batch: TurksCaicos-1999","TCA","UNKNOWN"
1999,"Turks and Caicos Islands","Caicos Bank: TC28-Aquarium West",21.80863,-72.2257,NA,"Atlantic and Gulf Rapid Reef Assessment (AGRRA) Database (www.agrra.org). Batch: TurksCaicos-1999","TCA","LOW"
1999,"Turks and Caicos Islands","Mouchoir Bank: TC11-Mouchoir Bank 1",20.98598,-70.78347,NA,"Atlantic and Gulf Rapid Reef Assessment (AGRRA) Database (www.agrra.org). Batch: TurksCaicos-1999","TCA","UNKNOWN"
1999,"Turks and Caicos Islands","Mouchoir Bank: TC12-Mouchoir Bank 2",21.02282,-70.81847,NA,"Atlantic and Gulf Rapid Reef Assessment (AGRRA) Database (www.agrra.org). Batch: TurksCaicos-1999","TCA","UNKNOWN"
1999,"Turks and Caicos Islands","Turks Bank: TC01-Lighthouse Point (anchor)",21.51898,-71.13395,NA,"Atlantic and Gulf Rapid Reef Assessment (AGRRA) Database (www.agrra.org). Batch: TurksCaicos-1999","TCA","UNKNOWN"
1999,"Turks and Caicos Islands","Turks Bank: TC02-North Point (anchor)",21.537,-71.10921,NA,"Atlantic and Gulf Rapid Reef Assessment (AGRRA) Database (www.agrra.org). Batch: TurksCaicos-1999","TCA","UNKNOWN"
1999,"Turks and Caicos Islands","Turks Bank: TC03-Coral Garden",21.45822,-71.15501,NA,"Atlantic and Gulf Rapid Reef Assessment (AGRRA) Database (www.agrra.org). Batch: TurksCaicos-1999","TCA","UNKNOWN"
1999,"Turks and Caicos Islands","Turks Bank: TC03-Coral Garden",21.45822,-71.15501,NA,"Atlantic and Gulf Rapid Reef Assessment (AGRRA) Database (www.agrra.org). Batch: TurksCaicos-1999","TCA","UNKNOWN"
1999,"Turks and Caicos Islands","Turks Bank: TC04-West of Little Sand Cay",21.3943,-71.16814,NA,"Atlantic and Gulf Rapid Reef Assessment (AGRRA) Database (www.agrra.org). Batch: TurksCaicos-1999","TCA","UNKNOWN"
1999,"Turks and Caicos Islands","Turks Bank: TC05-N. of Salt Cay (anchor)",21.37347,-71.2013,NA,"Atlantic and Gulf Rapid Reef Assessment (AGRRA) Database (www.agrra.org). Batch: TurksCaicos-1999","TCA","UNKNOWN"
1999,"Turks and Caicos Islands","Turks Bank: TC06-Casey's Wall (anchor. W. of Salt Cay)",21.30335,-71.22314,NA,"Atlantic and Gulf Rapid Reef Assessment (AGRRA) Database (www.agrra.org). Batch: TurksCaicos-1999","TCA","LOW"
1999,"Turks and Caicos Islands","Turks Bank: TC07-Black Forest",21.47923,-71.15352,NA,"Atlantic and Gulf Rapid Reef Assessment (AGRRA) Database (www.agrra.org). Batch: TurksCaicos-1999","TCA","UNKNOWN"
1999,"Turks and Caicos Islands","Turks Bank: TC08-Chief Minister's House",21.44072,-71.1549,NA,"Atlantic and Gulf Rapid Reef Assessment (AGRRA) Database (www.agrra.org). Batch: TurksCaicos-1999","TCA","UNKNOWN"
1999,"Turks and Caicos Islands","Turks Bank: TC09-b/w Round and Gibbs Cay",21.43845,-71.11047,NA,"Atlantic and Gulf Rapid Reef Assessment (AGRRA) Database (www.agrra.org). Batch: TurksCaicos-1999","TCA","UNKNOWN"
1999,"Turks and Caicos Islands","Turks Bank: TC10-E. of S. end of Grand Turk",21.4589,-71.11363,NA,"Atlantic and Gulf Rapid Reef Assessment (AGRRA) Database (www.agrra.org). Batch: TurksCaicos-1999","TCA","UNKNOWN"
1998,"Brazil","Abrolhos Reefs ( Abrolhos  Archipelago )",-17.6666666666667,-38.5," Moderate bleaching","ReefBase","BRA","HIGH"
1998,"Brazil","Abrolhos Reefs, Brazil",-17.785,-39,"90% of Mussismilia hispida bleached, 80% Agaricia agaricites and 70% Siderastrea stellata bleached.","Wilkinson, Clive","BRA","HIGH"
1993,"Brazil","Brazil - Atlantic",0,-45,"mild","GCRMN 2000. Chapter 18","BRA","LOW"
1998,"Brazil","northern coast of Bahia State",-13.6952,-38.9047,"90% of Mussismilia hispida bleached, 80% Agaricia agaricites and 70% Siderastrea stellata bleached.","Coral Listserver","BRA","HIGH"
1998,"Brazil","Sebasti O, Brazil",-16.9929,-39.1432,"Minimal bleaching","NOAA database","BRA","LOW"
1999,"Colombia","Chengue Bay",11.3333,-74.1333,"6% of colonies showing signs of bleaching","Coral Listserver","COL","LOW"
1998,"Colombia","Cocalito, Utria",6.03,-77.37,"no bleaching","Vargas-Angel, B., Zapata, F.A., Hernandez, H. and Jimenez, J.M. 2001. Coral and coral reef responses to the 1997-98 El Nino event on the Pacific coast of Colombia. Bulletin of Marine Science. 69(1):111-132","COL","NONE"
1997,"Colombia","Colombia",7,-74,"Minimal bleaching","ReefBase","COL","LOW"
1990,"Colombia","Colombia - Caribbean",10.1,-76,"mild","GCRMN 2000. Chapter 18, Table p340","COL","LOW"
1995,"Colombia","Colombia - Caribbean",10.1,-76,"mild","GCRMN 2000. Chapter 18","COL","LOW"
1999,"Colombia","Colombia - Caribbean",10.1,-76,"mild","GCRMN 2000. Chapter 18","COL","LOW"
1997,"Colombia","Colombia Pacific Coast",4.0111,-77.6335,"30% bleached","Wilkinson, Clive","COL","MEDIUM"
1998,"Colombia","El Cove",12.52,-81.7344,"40","Reef Check Data 2038","COL","MEDIUM"
1998,"Colombia","El Mirador Reef, Malpelo Island",3.9,-81.6,"minimal bleaching","Vargas-Angel, B., Zapata, F.A., Hernandez, H. and Jimenez, J.M. 2001. Coral and coral reef responses to the 1997-98 El Nino event on the Pacific coast of Colombia. Bulletin of Marine Science. 69(1):111-132","COL","LOW"
1997,"Colombia","Gorgona Island",2.97,-78.17,"beginning of event. 30% bleached","Coral Listserver","COL","LOW"
1998,"Colombia","La Azufrada Reef, Gorgona Island",2.98,-78.17,"Bl st'd Oct97 m'ly br tips Poc. Apr98 mod but w'sprd. Poc part bl'd, Pav 60% col. surf bl'd & alg o'grth in patches. May98 adv & w'sprd bl'g  All mass to 4m tot bl'd. 15-32% bl'd total. Aug98 all Pav sp to 4m bl'd & tops rec. dead. Poc 50-90% bl'd","Vargas-Angel, B., Zapata, F.A., Hernandez, H. and Jimenez, J.M. 2001. Coral and coral reef responses to the 1997-98 El Nino event on the Pacific coast of Colombia. Bulletin of Marine Science. 69(1):111-132","COL","MEDIUM"
1998,"Colombia","La Chola Reef, Utria",6.02,-77.35,"minimal bleaching","Vargas-Angel, B., Zapata, F.A., Hernandez, H. and Jimenez, J.M. 2001. Coral and coral reef responses to the 1997-98 El Nino event on the Pacific coast of Colombia. Bulletin of Marine Science. 69(1):111-132","COL","LOW"
1998,"Colombia","La Rocosa",12.5988,-81.6988,"30","Reef Check Data 2045","COL","MEDIUM"
1998,"Colombia","Los Farallones Reef, Gorgona Island",2.95,-78.21,"no bleaching","Vargas-Angel, B., Zapata, F.A., Hernandez, H. and Jimenez, J.M. 2001. Coral and coral reef responses to the 1997-98 El Nino event on the Pacific coast of Colombia. Bulletin of Marine Science. 69(1):111-132","COL","NONE"
1998,"Colombia","Nirvana",12.5,-81.7395,"20","Reef Check Data 2049","COL","MEDIUM"
1998,"Colombia","Playa Blanca Reef, Gorgona Island",2.96,-78.175,"1% bl started July 97 on distal br tips (temps 28-29c). Dec 97 (temp 28-30c) mod. but widespread bl. Apr 98 mean bleached coral = 25%.  May 98 (temp 30.8c) all Pavonas varians bl to 3m. June 98 mean bl coral = 25%. Aug 98 reef recovery bl low. ","Vargas-Angel, B., Zapata, F.A., Hernandez, H. and Jimenez, J.M. 2001. Coral and coral reef responses to the 1997-98 El Nino event on the Pacific coast of Colombia. Bulletin of Marine Science. 69(1):111-132","COL","MEDIUM"
1998,"Colombia","Playa Blanca, Utria",6,-77.35,"no bleaching","Vargas-Angel, B., Zapata, F.A., Hernandez, H. and Jimenez, J.M. 2001. Coral and coral reef responses to the 1997-98 El Nino event on the Pacific coast of Colombia. Bulletin of Marine Science. 69(1):111-132","COL","NONE"
1998,"Colombia","Punta Diego, Utria",6.01,-77.36,"no bleaching","Vargas-Angel, B., Zapata, F.A., Hernandez, H. and Jimenez, J.M. 2001. Coral and coral reef responses to the 1997-98 El Nino event on the Pacific coast of Colombia. Bulletin of Marine Science. 69(1):111-132","COL","NONE"
1998,"Colombia","Reef Lagoon",10.17,-75.75,"5","Reef Check Data 2007","COL","LOW"
1998,"Colombia","Rosario Islands ( Islas del Rosario )",10.15,-75.75," Minor bleaching","ReefBase","COL","LOW"
1999,"Colombia","San Andres Island",12.5333,-81.7167,"no bleaching","Coral Listserver","COL","NONE"
1998,"Colombia","San Andres Island ( Isla de San Andres )",12.5333333333333,-81.7," Minimal bleaching","ReefBase","COL","LOW"
1998,"Colombia","Schooner Bay",12.5403,-81.7378,"40","Reef Check Data 2050","COL","MEDIUM"
1998,"Colombia","Southern Reef Flat",10.1596,-75.7418,"5","Reef Check Data 2008","COL","LOW"
1999,"Colombia","Tayrona Natural Park",11.3,-74.15,"6% of colonies showing signs of bleaching","Coral Listserver","COL","MEDIUM"
1998,"Colombia","Tebada Reef",6.4,-77.42,"low to minimal bleaching (<1%) Bleaching spotted on Pocillopra, Psammocora occasional discoloration of tips ","Vargas-Angel, B., Zapata, F.A., Hernandez, H. and Jimenez, J.M. 2001. Coral and coral reef responses to the 1997-98 El Nino event on the Pacific coast of Colombia. Bulletin of Marine Science. 69(1):111-132","COL","LOW"
1998,"Colombia","Yundigua, Gorgona Island",3,-78.16,"All pocillopora bleached 1-4m, Massive Pavona & Porites totally bleached","Vargas-Angel, B., Zapata, F.A., Hernandez, H. and Jimenez, J.M. 2001. Coral and coral reef responses to the 1997-98 El Nino event on the Pacific coast of Colombia. Bulletin of Marine Science. 69(1):111-132","COL","MEDIUM"
1991,"Costa Rica","Cano Island",8.7333,-83.8833,"30-80% bleaching","Jimenez, C., Cortes, J., Leon, A. and Ruiz, E. 2001. Coral Bleaching  and Mortality associated with the 1997-1998 El Nino in an upwelling environemnt in the Eastern Pacific (Gulf of Papagayo, Costa Rica). Bulletin of Marine Science. 69(1):151-169","CRI","HIGH"
1992,"Costa Rica","Costa Rica - Caribbean",10,-82.5,"mild","GCRMN 2000. Chapter 18","CRI","LOW"
1992,"Costa Rica","Costa Rica - Pacific",9,-85,"mild","GCRMN 2000. Chapter 18","CRI","LOW"
1997,"Costa Rica","Culebra Bay",10.48,-85.87,"severe bleaching in May by August dead patches covered with algae. In September living coral advanced over dead patches completely overgrowing dead areas by Jan 1998. 32% branching, 38% massive, 40% other coral bleached","Jimenez, C., Cortes, J., Leon, A. and Ruiz, E. 2001. Coral Bleaching  and Mortality associated with the 1997-1998 El Nino in an upwelling environemnt in the Eastern Pacific (Gulf of Papagayo, Costa Rica). Bulletin of Marine Science. 69(1):151-169","CRI","MEDIUM"
1997,"Costa Rica","Golfo Dulce",9.9,-84.9,"60% branching coral bleached, 28% massive coral bleached, 76% other coral life froms bleached","Jimenez, C., Cortes, J., Leon, A. and Ruiz, E. 2001. Coral Bleaching  and Mortality associated with the 1997-1998 El Nino in an upwelling environemnt in the Eastern Pacific (Gulf of Papagayo, Costa Rica). Bulletin of Marine Science. 69(1):151-169","CRI","HIGH"
1997,"Costa Rica","Murcielagos Islands",10.85,-85.95,"75% of Pocillopora inflata bleached, 20% of colonies of Pavona sp bleached, 24% branching, 12% massive and 16% others bleached","Jimenez, C., Cortes, J., Leon, A. and Ruiz, E. 2001. Coral Bleaching  and Mortality associated with the 1997-1998 El Nino in an upwelling environemnt in the Eastern Pacific (Gulf of Papagayo, Costa Rica). Bulletin of Marine Science. 69(1):151-169","CRI","MEDIUM"
1998,"Costa Rica","Pelonas Isalnds",10.48,-85.87,"small patch (10sq m) of Pocillopora sp bleached and remained bleached for five months.","Jimenez, C., Cortes, J., Leon, A. and Ruiz, E. 2001. Coral Bleaching  and Mortality associated with the 1997-1998 El Nino in an upwelling environemnt in the Eastern Pacific (Gulf of Papagayo, Costa Rica). Bulletin of Marine Science. 69(1):151-169","CRI","MEDIUM"
1998,"Costa Rica","Punta Cocles",9.91666666666667,-82.8,"Bleaching was associated with the 1984 ENSO event. ","ReefBase","CRI","UNKNOWN"
1998,"Costa Rica","Reef 1, Cano Island",8.716,-83.884,"100% bleached","Guzman, H.M. and Cortes, J. 2001. Changes in reef community structure after fifteen years of natural disturbances in the Eastern Pacific (Costa Rica). Bulletin of Marine Science. 69(1):133-149","CRI","HIGH"
1998,"Costa Rica","Reef 2, Cano Island",8.7279,-83.878,"100% bleached","Guzman, H.M. and Cortes, J. 2001. Changes in reef community structure after fifteen years of natural disturbances in the Eastern Pacific (Costa Rica). Bulletin of Marine Science. 69(1):133-149","CRI","HIGH"
1998,"Costa Rica","Reef 3, Cano Island",8.7279,-83.887,"100% bleached","Guzman, H.M. and Cortes, J. 2001. Changes in reef community structure after fifteen years of natural disturbances in the Eastern Pacific (Costa Rica). Bulletin of Marine Science. 69(1):133-149","CRI","HIGH"
1998,"Costa Rica","Reef 4, Cano Island",8.72,-83.884,"100% bleached","Guzman, H.M. and Cortes, J. 2001. Changes in reef community structure after fifteen years of natural disturbances in the Eastern Pacific (Costa Rica). Bulletin of Marine Science. 69(1):133-149","CRI","HIGH"
1998,"Costa Rica","Reef 5, Cano Island",8.7279,-83.896,"100% bleached","Guzman, H.M. and Cortes, J. 2001. Changes in reef community structure after fifteen years of natural disturbances in the Eastern Pacific (Costa Rica). Bulletin of Marine Science. 69(1):133-149","CRI","HIGH"
1998,"Ecuador","Academy Bay, Santa Cruz Island",-0.8947,-90.4097,"100% bleached","Feingold,J.S. 2001. Responses of three coral communities to the 1997-98 El Nino-Southern Oscillation: Galapagos Islands, Ecuador","ECU","HIGH"
1998,"Ecuador","Bartolome, Galapagos",-0.2779,-90.5162,"20% of polyps of roughly 80% of coral bleached near the top 12/25/97 by 03/30/98 bleaching extensive.","b980106.dat","ECU","HIGH"
1998,"Ecuador","Caleta Robinson, Santa Cruz Island",-0.56,-90.17,"70-90% corals bleached","Glynn, P.W., Mate, J.L., Baker, A.C. & Calderson, M.O. 2001. Coral Bleaching & mortality in Panama and Ecuador during the 1997-98 ENSO event: Spatial/Temporal patterns and comparisons with the 1982-83 event. Bull Mar Sci. 69(1):79-121","ECU","HIGH"
1998,"Ecuador","Charles Darwin Research Station",-0.75,-90.3,"70-90% corals bleached","Glynn, P.W., Mate, J.L., Baker, A.C. & Calderson, M.O. 2001. Coral Bleaching & mortality in Panama and Ecuador during the 1997-98 ENSO event: Spatial/Temporal patterns and comparisons with the 1982-83 event. Bull Mar Sci. 69(1):79-114","ECU","HIGH"
1998,"Ecuador","Cubuya",-1.5,-80.81,"moderate","Glynn, P.W., Mate, J.L., Baker, A.C. & Calderson, M.O. 2001. Coral Bleaching & mortality in Panama and Ecuador during the 1997-98 ENSO event: Spatial/Temporal patterns and comparisons with the 1982-83 event. Bull Mar Sci. 69(1):79-130","ECU","MEDIUM"
1998,"Ecuador","Devils Crown, Floreana Island",-1.21,-90.47,"70-90% corals bleached","Glynn, P.W., Mate, J.L., Baker, A.C. & Calderson, M.O. 2001. Coral Bleaching & mortality in Panama and Ecuador during the 1997-98 ENSO event: Spatial/Temporal patterns and comparisons with the 1982-83 event. Bull Mar Sci. 69(1):79-116","ECU","HIGH"
1998,"Ecuador","Devils Crown, Floreana Island",-1.2239,-90.5017,"50% pale, 50% bleached in March. By May 88% bleached","Feingold,J.S. 2001. Responses of three coral communities to the 1997-98 El Nino-Southern Oscillation: Galapagos Islands, Ecuador","ECU","HIGH"
1998,"Ecuador","Espanola Island",-1.35,-89.7,"70-90% corals bleached","Glynn, P.W., Mate, J.L., Baker, A.C. & Calderson, M.O. 2001. Coral Bleaching & mortality in Panama and Ecuador during the 1997-98 ENSO event: Spatial/Temporal patterns and comparisons with the 1982-83 event. Bull Mar Sci. 69(1):79-112","ECU","HIGH"
1998,"Ecuador","Espanola, Galapagos",-1.3361,-89.6938,"20% of polyps of roughly 80% of coral bleached near the top 12/25/97 by 03/30/98 bleaching extensive.","b980106.dat","ECU","HIGH"
1998,"Ecuador","Galapagos Archipelago",-0.7488,-90.7676,NA,"NOAA database","ECU","MEDIUM"
1998,"Ecuador","Galapagos Archipelago",-0.2701,-91.0988,NA,"Wilkinson, Clive","ECU","LOW"
1998,"Ecuador","Galapagos Islands",-0.65,-90.3833333333333," Coral bleached down to 30 m, but bleaching was more extensive shallower than 10-15 m depth.","ReefBase","ECU","HIGH"
1998,"Ecuador","La Plata Island",-1.28,-81.07,"moderate","Glynn, P.W., Mate, J.L., Baker, A.C. & Calderson, M.O. 2001. Coral Bleaching & mortality in Panama and Ecuador during the 1997-98 ENSO event: Spatial/Temporal patterns and comparisons with the 1982-83 event. Bull Mar Sci. 69(1):79-126","ECU","MEDIUM"
1998,"Ecuador","Los Frailes",-1.48,-80.8,"moderate","Glynn, P.W., Mate, J.L., Baker, A.C. & Calderson, M.O. 2001. Coral Bleaching & mortality in Panama and Ecuador during the 1997-98 ENSO event: Spatial/Temporal patterns and comparisons with the 1982-83 event. Bull Mar Sci. 69(1):79-128","ECU","MEDIUM"
1998,"Ecuador","Machalilla",-1.47,-80.78,"moderate","Glynn, P.W., Mate, J.L., Baker, A.C. & Calderson, M.O. 2001. Coral Bleaching & mortality in Panama and Ecuador during the 1997-98 ENSO event: Spatial/Temporal patterns and comparisons with the 1982-83 event. Bull Mar Sci. 69(1):79-129","ECU","MEDIUM"
1998,"Ecuador","Playa La Picona, Floreana Island",-1.21,-90.43,"70-90% corals bleached","Glynn, P.W., Mate, J.L., Baker, A.C. & Calderson, M.O. 2001. Coral Bleaching & mortality in Panama and Ecuador during the 1997-98 ENSO event: Spatial/Temporal patterns and comparisons with the 1982-83 event. Bull Mar Sci. 69(1):79-118","ECU","HIGH"
1998,"Ecuador","Pta Carrion, Santa Cruz Island",-0.5,-90.2,"70-90% corals bleached","Glynn, P.W., Mate, J.L., Baker, A.C. & Calderson, M.O. 2001. Coral Bleaching & mortality in Panama and Ecuador during the 1997-98 ENSO event: Spatial/Temporal patterns and comparisons with the 1982-83 event. Bull Mar Sci. 69(1):79-119","ECU","HIGH"
1998,"Ecuador","Pta Espejo, Marchena Island",0.4,-90.4,"70-90% corals bleached","Glynn, P.W., Mate, J.L., Baker, A.C. & Calderson, M.O. 2001. Coral Bleaching & mortality in Panama and Ecuador during the 1997-98 ENSO event: Spatial/Temporal patterns and comparisons with the 1982-83 event. Bull Mar Sci. 69(1):79-120","ECU","HIGH"
1998,"Ecuador","Pta Estrada, Santa Cruz Island",0.77,-90.4,"70-90% corals bleached","Glynn, P.W., Mate, J.L., Baker, A.C. & Calderson, M.O. 2001. Coral Bleaching & mortality in Panama and Ecuador during the 1997-98 ENSO event: Spatial/Temporal patterns and comparisons with the 1982-83 event. Bull Mar Sci. 69(1):79-115","ECU","HIGH"
1998,"Ecuador","Pta Los Picaros",-1.59,-80.87,"moderate","Glynn, P.W., Mate, J.L., Baker, A.C. & Calderson, M.O. 2001. Coral Bleaching & mortality in Panama and Ecuador during the 1997-98 ENSO event: Spatial/Temporal patterns and comparisons with the 1982-83 event. Bull Mar Sci. 69(1):79-127","ECU","MEDIUM"
1998,"Ecuador","Puta Espejo, Marchena Island",0.5028,-90.4278,"Psammacora stellata 86.7% bleached ","Feingold,J.S. 2001. Responses of three coral communities to the 1997-98 El Nino-Southern Oscillation: Galapagos Islands, Ecuador","ECU","HIGH"
1998,"Ecuador","Santa Cruz, Galapagos",-0.4907,-90.414,"20% of polyps of roughly 80% of coral bleached near the top 12/25/97 by 03/30/98 bleaching extensive.","b980106.dat -Eric Eisenhardt","ECU","HIGH"
1998,"Ecuador","Santa Fe, Galapagos",-0.7998,-90.1042,"20% of polyps of roughly 80% of coral bleached near the top 12/25/97 by 03/30/98 bleaching extensive.","b980106.dat","ECU","HIGH"
1998,"Ecuador","Santa Fe, Galapagos",-0.8,-90,"70-90% corals bleached","Glynn, P.W., Mate, J.L., Baker, A.C. & Calderson, M.O. 2001. Coral Bleaching & mortality in Panama and Ecuador during the 1997-98 ENSO event: Spatial/Temporal patterns and comparisons with the 1982-83 event. Bull Mar Sci. 69(1):79-113","ECU","HIGH"
1998,"Ecuador","Vchampion Island",-1.22,-90.39,"70-90% corals bleached","Glynn, P.W., Mate, J.L., Baker, A.C. & Calderson, M.O. 2001. Coral Bleaching & mortality in Panama and Ecuador during the 1997-98 ENSO event: Spatial/Temporal patterns and comparisons with the 1982-83 event. Bull Mar Sci. 69(1):79-117","ECU","HIGH"
1998,"Ecuador","Wenman Island nr Galapagos Archipelago",0.2732,-91.6261,"severe bleaching","NOAA database","ECU","HIGH"
1998,"Panama","Chiriqui Gulf ( Golfo de Chiriqui )",8,-82.3333333333333," There were about 50-90% corals which were partailly bleached.","ReefBase","PAN","LOW"
1998,"Panama","Contadora Island",8.63,-79.01,"no bleaching","Glynn, P.W., Mate, J.L., Baker, A.C. & Calderson, M.O. 2001. Coral Bleaching & mortality in Panama and Ecuador during the 1997-98 ENSO event: Spatial/Temporal patterns and comparisons with the 1982-83 event. Bull Mar Sci. 69(1):79-109","PAN","NONE"
1998,"Panama","Gulf of Chiriqui region",7.9357,-82.0478,"50% to 90% corals experienced at least partial bleaching","Coral Listserver","PAN","HIGH"
